[{"denominazione":"Biblioteca della Soprintendenza per i beni culturali e ambientali Pirro Marconi","latitudine":37.3361677,"longitudine":13.5880717},{"denominazione":"Biblioteca dell'Archivio di Stato di Agrigento","latitudine":37.3221644312,"longitudine":13.5886026455},{"denominazione":"Biblioteca del Seminario vescovile","latitudine":37.3137125,"longitudine":13.5749656},{"denominazione":"Biblioteca Comunale Franco La Rocca","latitudine":37.3095818,"longitudine":13.586151},{"denominazione":"Biblioteca comunale F. La Rocca - Sezione esterna di Giardina Gallotti","latitudine":37.4050904,"longitudine":13.5291051},{"denominazione":"Biblioteca Comunale Salvatore Cacciatore Partigiano Ciro","latitudine":37.4085327,"longitudine":13.6439393},{"denominazione":"Biblioteca comunale","latitudine":37.6184977,"longitudine":13.4405434},{"denominazione":"Biblioteca comunale \"Guglielmo Raimondo Moncada\"","latitudine":37.5767686,"longitudine":13.215112},{"denominazione":"Biblioteca Comunale Mons. Domenico De Gregorio","latitudine":37.6308269,"longitudine":13.6371923},{"denominazione":"Biblioteca comunale 'Prof. Michele Sciabbarrasi'","latitudine":37.3502091,"longitudine":13.7501414},{"denominazione":"Biblioteca comunale","latitudine":37.438755,"longitudine":13.3952266},{"denominazione":"Biblioteca comunale \"Paolo Borsellino\"","latitudine":37.514489,"longitudine":13.4331103},{"denominazione":"Biblioteca comunale","latitudine":37.408845,"longitudine":13.644007},{"denominazione":"Biblioteca Comunale Barone Antonio Mendola","latitudine":37.3147813,"longitudine":13.6604992},{"denominazione":"Biblioteca comunale Martin Luther King","latitudine":37.4026107,"longitudine":13.6986455},{"denominazione":"Biblioteca comunale","latitudine":37.3880709,"longitudine":13.5559895},{"denominazione":"Biblioteca Comunale Piersanti Mattarella","latitudine":37.578927,"longitudine":13.3069809},{"denominazione":"Istituzione Culturale Federico II","latitudine":37.597988,"longitudine":12.969909},{"denominazione":"Biblioteca Comunale Antonio Gramsci","latitudine":37.3890272,"longitudine":13.3522133},{"denominazione":"Biblioteca Comunale Feliciana","latitudine":37.2959201,"longitudine":13.7925044},{"denominazione":"Biblioteca Comunale Giuseppe Tamburello","latitudine":37.312285,"longitudine":13.4653385},{"denominazione":"Biblioteca comunale Vincenzo Navarro","latitudine":37.647385,"longitudine":13.111555},{"denominazione":"Biblioteca comunale","latitudine":37.5071876,"longitudine":13.5231628},{"denominazione":"Biblioteca Comunale","latitudine":37.6304656,"longitudine":13.6498055},{"denominazione":"Biblioteca comunale 'Domenico Iacono'","latitudine":37.4803233,"longitudine":13.5461917},{"denominazione":"Biblioteca comunale 'Elsa Morante'","latitudine":37.6966292,"longitudine":13.015239},{"denominazione":"Biblioteca comunale G. Ansalone","latitudine":37.623834,"longitudine":13.4912204},{"denominazione":"Biblioteca Comunale \"Aurelio Cassar\"","latitudine":37.5079397,"longitudine":13.0863207},{"denominazione":"Biblioteca comunale Giuseppe Antonio Musso","latitudine":37.5872593,"longitudine":13.2903659},{"denominazione":"Biblioteca comunale Santo Spirito. Sezione esterna di Montaperto","latitudine":37.3111882,"longitudine":13.576956},{"denominazione":"Biblioteca comunale - sezione di Villaseta","latitudine":37.2985162,"longitudine":13.5623256},{"denominazione":"Biblioteca Comunale Falcone - Borsellino","latitudine":37.5321098,"longitudine":13.4362895},{"denominazione":"Biblioteca comunale","latitudine":37.6012624,"longitudine":13.2869338},{"denominazione":"Biblioteca comunale Centro Culturale San Domenico","latitudine":37.3573916,"longitudine":13.8474024},{"denominazione":"Biblioteca Comunale Francesco Lo Bue","latitudine":37.5375563,"longitudine":13.6407823},{"denominazione":"Biblioteca IBBY Lampedusa","latitudine":35.5023056,"longitudine":12.6084917},{"denominazione":"Biblioteca comunale \"Salvatore Ruvolo\"","latitudine":37.7025429,"longitudine":12.9902897},{"denominazione":"Biblioteca Comunale Giovanni Falcone","latitudine":37.1974108,"longitudine":13.7581674},{"denominazione":"Biblioteca comunale","latitudine":37.2939767,"longitudine":13.5024222},{"denominazione":"Biblioteca comunale","latitudine":37.4069215,"longitudine":13.7327047},{"denominazione":"Biblioteca popolare Virtus Matrice","latitudine":37.40868,"longitudine":13.732503},{"denominazione":"Biblioteca comunale","latitudine":37.4097845,"longitudine":13.5275723},{"denominazione":"Biblioteca comunale \"Giuseppe Zagarrio\"","latitudine":37.2656209,"longitudine":13.9742634},{"denominazione":"Biblioteca comunale Antonio Gramsci","latitudine":37.502258,"longitudine":13.265373},{"denominazione":"Biblioteca comunale di Santa Elisabetta","latitudine":37.431386,"longitudine":13.558815},{"denominazione":"Biblioteca comunale","latitudine":37.3369124,"longitudine":13.4203497},{"denominazione":"Biblioteca della Provincia regionale di Agrigento Gaspare Ambrosini","latitudine":37.3104962,"longitudine":13.585672},{"denominazione":"Biblioteca comunale - sezione di Fontanelle","latitudine":37.3377724,"longitudine":13.5829697},{"denominazione":"Biblioteca Lucchesiana","latitudine":37.3135702,"longitudine":13.577717},{"denominazione":"Biblioteca comunale L. Vitali","latitudine":37.1007135,"longitudine":13.9369706},{"denominazione":"Biblioteca comunale","latitudine":37.2523912,"longitudine":13.9190892},{"denominazione":"Biblioteca Museo Luigi Pirandello","latitudine":37.3124703,"longitudine":13.5857746},{"denominazione":"Biblioteca della Fondazione Leonardo Sciascia","latitudine":37.4060817,"longitudine":13.7309644},{"denominazione":"Biblioteca dell'Istituto Comprensivo Anna Frank","latitudine":37.3208136,"longitudine":13.5821041},{"denominazione":"Biblioteca del Circolo didattico S.G. Bosco","latitudine":37.311634,"longitudine":13.5705384},{"denominazione":"Biblioteca dell'Istituto professionale per i servizi commerciali e turistici Nicol\u00f2 Gallo","latitudine":37.3130698,"longitudine":13.5799543},{"denominazione":"Biblioteca Comunale","latitudine":37.2534645,"longitudine":13.792158},{"denominazione":"Biblioteca della Fondazione Giovanni Guarino Amella","latitudine":37.3581785,"longitudine":13.8506902},{"denominazione":"Biblioteca del Polo territoriale universitario di Agrigento. Universit\u00e0 degli studi di Palermo","latitudine":37.3020872851,"longitudine":13.5929968772},{"denominazione":"Biblioteca scolastica \"Onofrio Lo Dico\"","latitudine":37.3097086668,"longitudine":13.5832845399},{"denominazione":"Bibliofonoteca \u201cEttore Gaiezza\u201d del Conservatorio \"Arturo Toscanini\"","latitudine":37.5052649893,"longitudine":13.2739161265},{"denominazione":"Biblioteca civica di Acqui Terme","latitudine":44.6781703,"longitudine":8.4656046},{"denominazione":"Biblioteca civica Francesca Calvo","latitudine":44.9114484,"longitudine":8.6193907},{"denominazione":"Biblioteca dell'Archivio di Stato di Alessandria","latitudine":44.9138006,"longitudine":8.6261328},{"denominazione":"Biblioteca diocesana del Seminario vescovile","latitudine":44.9169522,"longitudine":8.6130294},{"denominazione":"Biblioteca delle Societa' di storia, arte e archeologia per le province di Alessandria e Asti","latitudine":44.9148321,"longitudine":8.6186655},{"denominazione":"Biblioteca della Camera di Commercio di Alessandria-Asti, Sede Centrale Alessandria","latitudine":44.9149822,"longitudine":8.6118368},{"denominazione":"Biblioteca civica","latitudine":45.0470654,"longitudine":8.2085733},{"denominazione":"Biblioteca civica","latitudine":44.7256367,"longitudine":8.4514592},{"denominazione":"Biblioteca civica \"Gaetano Poggi\"","latitudine":44.6865702,"longitudine":8.8857724},{"denominazione":"Biblioteca civica","latitudine":44.6602097,"longitudine":8.3699538},{"denominazione":"Biblioteca civica","latitudine":44.7309963,"longitudine":8.9452855},{"denominazione":"Biblioteca civica Pio e Ildegarda Occella","latitudine":44.822143,"longitudine":8.676652},{"denominazione":"Biblioteca civica \"Giancarlo Merlo\"","latitudine":44.6469431,"longitudine":8.7911112},{"denominazione":"Biblioteca G. Ferraro","latitudine":44.6771406,"longitudine":8.6065492},{"denominazione":"Biblioteca civica Barco Fedele","latitudine":44.8351618,"longitudine":8.6260029},{"denominazione":"Biblioteca del Seminario vescovile","latitudine":45.1375789,"longitudine":8.4549355},{"denominazione":"Biblioteca civica","latitudine":44.766162,"longitudine":8.863507},{"denominazione":"Biblioteca civica \"Ettore Amerio\"","latitudine":44.748377,"longitudine":8.524317},{"denominazione":"Biblioteca civica Francesco Poggio","latitudine":44.845487,"longitudine":8.576871},{"denominazione":"BIBLIOTECA CIVICA COMUNALE","latitudine":44.6703782,"longitudine":8.7298766},{"denominazione":"Biblioteca comunale Pier Angelo Soldini","latitudine":44.9808604,"longitudine":8.8803363},{"denominazione":"Biblioteca civica","latitudine":44.8042668,"longitudine":8.5829296},{"denominazione":"Biblioteca civica","latitudine":45.0741078,"longitudine":8.3918688},{"denominazione":"Biblioteca civica","latitudine":45.0861082,"longitudine":8.3168437},{"denominazione":"Biblioteca civica","latitudine":45.020452,"longitudine":8.456127},{"denominazione":"Biblioteca civica","latitudine":44.8379796,"longitudine":8.6805468},{"denominazione":"Biblioteca civica","latitudine":44.9648757,"longitudine":8.4277281},{"denominazione":"Biblioteca civica Giuseppe Boffito","latitudine":44.6889274,"longitudine":8.8036272},{"denominazione":"Biblioteca comunale","latitudine":45.0594224,"longitudine":8.5678272},{"denominazione":"Biblioteca civica","latitudine":45.0358204,"longitudine":8.5233311},{"denominazione":"Biblioteca civica","latitudine":44.6198401,"longitudine":8.5997789},{"denominazione":"Biblioteca civica","latitudine":44.5991038,"longitudine":8.353051},{"denominazione":"Biblioteca civica Rosanna Benzi","latitudine":44.6035985,"longitudine":8.5102163},{"denominazione":"Biblioteca civica","latitudine":44.6647895,"longitudine":8.5500822},{"denominazione":"Biblioteca civica","latitudine":44.7612007,"longitudine":8.7826379},{"denominazione":"Biblioteca Civica \"Maestro Angelo Debernardis\"","latitudine":45.0599293,"longitudine":8.5068152},{"denominazione":"Biblioteca civica","latitudine":45.1093802,"longitudine":8.1666328},{"denominazione":"Biblioteca comunale 'Alessandra Fracchia'","latitudine":45.1022953,"longitudine":8.3744284},{"denominazione":"Biblioteca civica Federico Ragni","latitudine":44.9593205,"longitudine":8.7348802},{"denominazione":"Biblioteca civica Sandro Castelli","latitudine":44.9607821,"longitudine":8.9320109},{"denominazione":"Biblioteca civica","latitudine":45.1434752,"longitudine":8.333294},{"denominazione":"Biblioteca civica Tommaso e Angiolina Battaglia","latitudine":44.5883115,"longitudine":8.458644},{"denominazione":"Biblioteca antica del Castello","latitudine":44.7934548,"longitudine":8.7815595},{"denominazione":"Biblioteca civica Caterina De Marco","latitudine":44.7934548,"longitudine":8.7815595},{"denominazione":"Biblioteca civica Marco Morielli","latitudine":44.6423639,"longitudine":8.5528565},{"denominazione":"Biblioteca civica \"A. Pesce\"","latitudine":44.7525854,"longitudine":8.6583719},{"denominazione":"Biblioteca civica","latitudine":44.711682,"longitudine":8.548301},{"denominazione":"Biblioteca civica","latitudine":44.671213,"longitudine":8.6477403},{"denominazione":"Biblioteca 'Claudio Castelli'","latitudine":45.0766016,"longitudine":8.3582933},{"denominazione":"Biblioteca civica Alessandro Molinari","latitudine":44.9816071,"longitudine":8.8099927},{"denominazione":"Biblioteca civica di San Giorgio Monferrato","latitudine":45.1074067,"longitudine":8.414497},{"denominazione":"Biblioteca comunale \"Domenico Fava\"","latitudine":44.9945499887,"longitudine":8.5679607774},{"denominazione":"Biblioteca civica","latitudine":44.7221782,"longitudine":8.8563317},{"denominazione":"Biblioteca civica","latitudine":44.7561627,"longitudine":8.5900104},{"denominazione":"Biblioteca di Solero","latitudine":44.9195173,"longitudine":8.5077366},{"denominazione":"Biblioteca civica","latitudine":44.9091613,"longitudine":8.6138571},{"denominazione":"Biblioteca civica","latitudine":44.7269445,"longitudine":8.867483},{"denominazione":"Biblioteca civica","latitudine":44.698461,"longitudine":8.5222165},{"denominazione":"Biblioteca civica","latitudine":45.0988713177,"longitudine":8.5551732656},{"denominazione":"Biblioteca civica \"Tommaso de Ocheda\"","latitudine":44.8980983,"longitudine":8.867948},{"denominazione":"Biblioteca diocesana del Seminario Vescovile di Tortona","latitudine":44.8976286,"longitudine":8.8664597},{"denominazione":"Biblioteca comunale G. Spina","latitudine":45.097273,"longitudine":8.359639},{"denominazione":"Biblioteca - Centro comunale di Cultura","latitudine":45.012268,"longitudine":8.6441846},{"denominazione":"Biblioteca civica","latitudine":45.0994504,"longitudine":8.5869882},{"denominazione":"Biblioteca civica","latitudine":44.7074794,"longitudine":8.8910696},{"denominazione":"Biblioteca civica \"Giuseppe Demichelis\"","latitudine":45.181969,"longitudine":8.4787097},{"denominazione":"Biblioteca civica","latitudine":44.7662535,"longitudine":8.7024368},{"denominazione":"Biblioteca civica \"Scarsi Cesarina\"","latitudine":44.6736796,"longitudine":9.0962946},{"denominazione":"Biblioteca civica Giovanni Canna","latitudine":45.1340432,"longitudine":8.4522332},{"denominazione":"Biblioteca civica","latitudine":45.074995,"longitudine":8.2408449},{"denominazione":"Biblioteca civica","latitudine":45.1201207,"longitudine":8.2155736},{"denominazione":"Biblioteca civica Elena Cavallero","latitudine":44.8980888,"longitudine":8.4357422},{"denominazione":"Biblioteca civica","latitudine":44.7815841,"longitudine":8.6904218},{"denominazione":"Biblioteca civica Coniugi Marie ed Eraldo Ighina","latitudine":44.6395304,"longitudine":8.645435},{"denominazione":"Biblioteca civica Don Cesare Moretti","latitudine":44.944098,"longitudine":8.670661},{"denominazione":"Biblioteca civica di Vignale Monferrato","latitudine":45.010552,"longitudine":8.3963661},{"denominazione":"Biblioteca civica di Viguzzolo","latitudine":44.9049689,"longitudine":8.9195976},{"denominazione":"Biblioteca del Seminario vescovile monsignor C. G. Capra","latitudine":44.674332,"longitudine":8.470622},{"denominazione":"Biblioteca Carlo Mosso del Conservatorio statale di musica Antonio Vivaldi","latitudine":44.912547,"longitudine":8.6173034},{"denominazione":"Biblioteca dell'Istituto per la storia della Resistenza e della societ\u00e0 contemporanea in provincia di Alessandria - ISRAL 'Carlo Gilardenghi'","latitudine":44.9164749,"longitudine":8.6168587},{"denominazione":"Biblioteca dell'Archivio vescovile","latitudine":44.6742314,"longitudine":8.4706708},{"denominazione":"Biblioteca e archivio storico della Cassa di risparmio di Alessandria","latitudine":44.9137084,"longitudine":8.6170965},{"denominazione":"Biblioteca e centro di documentazione del Gruppo volontariato assistenza handicappati","latitudine":44.6766694,"longitudine":8.4704869},{"denominazione":"Biblioteca del Parco naturale e area attrezzata del Sacro Monte di Crea","latitudine":45.0854671,"longitudine":8.2632261},{"denominazione":"Biblioteca civica","latitudine":44.99874,"longitudine":8.783085},{"denominazione":"Biblioteca dell'Accademia urbense di Ovada - Archivio Alto Monferrato","latitudine":44.639405,"longitudine":8.6457583},{"denominazione":"Biblioteca del Dipartimento di Scienze e Innovazione tecnologica dell'Universit\u00e0 degli Studi del Piemonte orientale A. Avogadro","latitudine":44.9229097,"longitudine":8.6177279},{"denominazione":"Biblioteca dell'Ospedale civile Santi Antonio e Biagio","latitudine":44.9153962,"longitudine":8.6204103},{"denominazione":"Biblioteca civica \"Donatella Cabiati\" di Camagna Monferrato","latitudine":45.0179904,"longitudine":8.430448},{"denominazione":"Biblioteca civica","latitudine":44.75243,"longitudine":8.895883},{"denominazione":"Biblioteca del Convento dei Padri Cappuccini","latitudine":44.8970651,"longitudine":8.8712313},{"denominazione":"Biblioteca Biomedica e Centro Documentazione","latitudine":44.9152943,"longitudine":8.6212533},{"denominazione":"Biblioteca comunale Dott. G. D. Sancio","latitudine":45.1832196,"longitudine":8.4024364},{"denominazione":"Biblioteca civica","latitudine":45.0837133,"longitudine":8.4407343},{"denominazione":"Biblioteca della Scuola media statale Leardi","latitudine":45.1355689,"longitudine":8.4575941},{"denominazione":"BIBLIOTECA CIVICA GIORGIO BORGHELLO","latitudine":44.7024643,"longitudine":9.06574},{"denominazione":"Biblioteca del tiro a segno nazionale","latitudine":44.9242781434,"longitudine":8.595428836},{"denominazione":"Biblioteca civica \"Walter Perfumo\"","latitudine":44.8694076,"longitudine":8.4059648},{"denominazione":"Biblioteca civica","latitudine":44.6647382,"longitudine":8.6895166},{"denominazione":"Biblioteca civica Margherita Musso","latitudine":44.6621931,"longitudine":8.5025138},{"denominazione":"Biblioteca dell'Istituto statale d'arte B. Cellini","latitudine":45.0048304,"longitudine":8.6609083},{"denominazione":"Biblioteca civica","latitudine":45.0315502,"longitudine":8.3867346},{"denominazione":"Biblioteca civica \"L. Odone\"","latitudine":44.8090186,"longitudine":8.542582},{"denominazione":"BIBLIOTECA COMUNALE \"EUGENIO ARECCO \"","latitudine":44.750197,"longitudine":8.748415},{"denominazione":"Biblioteca comunale Camillo Cappellaro","latitudine":45.0811435,"longitudine":8.3998028},{"denominazione":"Biblioteca comunale Nelson Mandela","latitudine":44.639065,"longitudine":8.6686669},{"denominazione":"Biblioteca civica","latitudine":44.7265731,"longitudine":8.7696017},{"denominazione":"Biblioteca dell'Associazione Pellizza da Volpedo-Musei di Pellizza","latitudine":44.889378,"longitudine":8.982487},{"denominazione":"Biblioteca del Liceo classico Giuseppe Saracco","latitudine":44.6734867,"longitudine":8.4689424},{"denominazione":"Biblioteca civica","latitudine":44.6249309,"longitudine":8.3941756},{"denominazione":"Biblioteca del Liceo E. Amaldi","latitudine":44.7639591,"longitudine":8.7808201},{"denominazione":"Biblioteca civica Enrico Brizzolesi","latitudine":44.7300003,"longitudine":8.6889019},{"denominazione":"Biblioteca dell'Istituto tecnico industriale statale Francesco Torre","latitudine":44.6782471,"longitudine":8.4609426},{"denominazione":"Centro di documentazione pedagogica Il filo di Arianna","latitudine":45.0137237,"longitudine":8.6384516},{"denominazione":"Biblioteca civica","latitudine":44.7321351,"longitudine":8.7344268},{"denominazione":"Biblioteca civica","latitudine":44.6924478,"longitudine":8.7497358},{"denominazione":"Biblioteca Istituto Comprensivo 2 Novi Ligure","latitudine":44.7604017,"longitudine":8.8014364},{"denominazione":"Biblioteca del Liceo Giuseppe Peano","latitudine":44.89351,"longitudine":8.86605},{"denominazione":"Biblioteca civica","latitudine":45.1326203,"longitudine":8.250426},{"denominazione":"Biblioteca comunale Gabriele Serrafero","latitudine":45.1622654,"longitudine":8.2872415},{"denominazione":"Biblioteca civica Cesare Pavese","latitudine":45.1005606,"longitudine":8.2823566},{"denominazione":"Biblioteca della Fondazione CR Tortona","latitudine":44.897415,"longitudine":8.8648547},{"denominazione":"Biblioteca civica","latitudine":44.6355557,"longitudine":8.7137433},{"denominazione":"Biblioteca dell'Istituto ITIS Giulio Ciampini","latitudine":44.761258,"longitudine":8.793212},{"denominazione":"Biblioteca delle ragazze e dei ragazzi \"Emanuele Luzzati\"","latitudine":45.1378465,"longitudine":8.4480599},{"denominazione":"Biblioteca del Centro documentazione Sacri Monti","latitudine":45.0926609,"longitudine":8.2686},{"denominazione":"Biblioteca civica","latitudine":44.7340459,"longitudine":8.4694622},{"denominazione":"Biblioteca del Club Alpino italiano - CAI Sezione Davide e Luigi Guerci","latitudine":45.0119849,"longitudine":8.6345616},{"denominazione":"BIBLIOTECA CIVICA GIUSEPPE BORSALINO","latitudine":44.9894001,"longitudine":8.6698754},{"denominazione":"Biblioteca comunale di Casalnoceto","latitudine":44.9118851,"longitudine":8.9833868},{"denominazione":"Biblioteca civica","latitudine":45.054414,"longitudine":8.340655},{"denominazione":"Biblioteca civica","latitudine":44.6184891,"longitudine":8.8423357},{"denominazione":"Biblioteca \"Norberto Bobbio\" del Dipartimento di giurisprudenza e scienze politiche, economiche e sociali dell'Universit\u00e0 degli studi del Piemonte Orientale A. Avogadro - DIGSPES","latitudine":44.908982,"longitudine":8.6159717},{"denominazione":"BIBLIOTECA CIVICA MAESTRO LUIGI ROSO","latitudine":44.6273913,"longitudine":8.3656391},{"denominazione":"Biblioteca della CISL AL-AT Michele Crosio","latitudine":44.9124573,"longitudine":8.6193114},{"denominazione":"Biblioteca comunale coniolo","latitudine":45.147028,"longitudine":8.372127},{"denominazione":"Biblioteca del nuovo circolo ILVA","latitudine":44.7591047,"longitudine":8.7909516},{"denominazione":"Biblioteca dell'Istituto di istruzione superiore Cesare Balbo","latitudine":45.1353169905,"longitudine":8.4470217712},{"denominazione":"Biblioteca Biomedica - Fondo storico G. Maconi","latitudine":44.9151933,"longitudine":8.6213485},{"denominazione":"Biblioteca Civica","latitudine":44.629855568,"longitudine":8.4917548393},{"denominazione":"Biblioteca Civica","latitudine":44.5928252217,"longitudine":8.4204308466},{"denominazione":"Biblioteca comunale","latitudine":44.6391712,"longitudine":8.7561129},{"denominazione":"Biblioteca dell'Ente di gestione delle Aree Protette dell'Appennino Piemontese","latitudine":44.6172084,"longitudine":8.8424758},{"denominazione":"Biblioteca Comunale \"Elvezia Guerinoni\"","latitudine":44.6188776,"longitudine":9.1758886},{"denominazione":"Biblioteca comunale di Gremiasco","latitudine":44.7956279,"longitudine":9.1095593},{"denominazione":"Biblioteca del Museo Etnografico \"Gambarina\"","latitudine":44.9158943,"longitudine":8.6177896},{"denominazione":"Biblioteca comunale Luciano Benincasa","latitudine":43.6206639,"longitudine":13.5128984},{"denominazione":"Biblioteca dell'Istituto regionale per la storia del movimento di liberazione nelle Marche","latitudine":43.6206639,"longitudine":13.5128984},{"denominazione":"Biblioteca dell'Accademia marchigiana di scienze, lettere, arti","latitudine":43.6225003,"longitudine":13.5111992},{"denominazione":"Biblioteca dell'Archivio di Stato di Ancona","latitudine":43.5977214,"longitudine":13.5035288},{"denominazione":"Biblioteca diocesana Ancona","latitudine":43.6235341,"longitudine":13.5122332},{"denominazione":"Biblioteca della Soprintendenza Archeologia, Belle Arti e Paesaggio per le province Ancona Pesaro Urbino","latitudine":43.6235341,"longitudine":13.5122332},{"denominazione":"Biblioteca della Deputazione di storia patria per le Marche Amedeo Crivellucci","latitudine":43.622633,"longitudine":13.511611},{"denominazione":"Biblioteca Augusto Tamburini","latitudine":43.5995556,"longitudine":13.5047804},{"denominazione":"Bibliolandia","latitudine":43.6125734,"longitudine":13.4283296},{"denominazione":"Biblioteca dell'Istituto marchigiano Jacques Maritain","latitudine":43.6229162,"longitudine":13.5123164},{"denominazione":"Biblioteca comunale \"Angelo Rocca\"","latitudine":43.5001928,"longitudine":12.9403218},{"denominazione":"Sala letture Baden Powell","latitudine":43.530565,"longitudine":13.5533},{"denominazione":"Biblioteca comunale T. Lippera","latitudine":43.3212299,"longitudine":12.9856037},{"denominazione":"Biblioteca comunale Massimo Ferretti","latitudine":43.6017094,"longitudine":13.3252498},{"denominazione":"Biblioteca del Convento dei cappuccini","latitudine":43.6591033,"longitudine":13.0441861},{"denominazione":"Biblioteca comunale","latitudine":43.6510323,"longitudine":13.0479122},{"denominazione":"Biblioteca comunale di Cupramontana","latitudine":43.445485,"longitudine":13.115683},{"denominazione":"Biblioteca Multimediale \"R. Sassi\"","latitudine":43.336017311,"longitudine":12.9049569259},{"denominazione":"Biblioteca diocesana","latitudine":43.3352468,"longitudine":12.9039463},{"denominazione":"Biblioteca del Monastero S. Silvestro","latitudine":43.3028344,"longitudine":12.8902389},{"denominazione":"Biblioteca storico-francescana e picena","latitudine":43.629094,"longitudine":13.3924411},{"denominazione":"Biblioteca comunale","latitudine":43.6014568,"longitudine":13.325673},{"denominazione":"Biblioteca diocesana Pier Matteo Petrucci","latitudine":43.5241343,"longitudine":13.2454032},{"denominazione":"Biblioteca del Convento dei frati cappuccini","latitudine":43.52572,"longitudine":13.2410826},{"denominazione":"Biblioteca comunale Attilio Brugiamolini","latitudine":43.4383438,"longitudine":13.6068867},{"denominazione":"Biblioteca comunale Gaspare Spontini","latitudine":43.600161155,"longitudine":13.2703252794},{"denominazione":"Biblioteca comunale 'Guido Moretti'","latitudine":43.6400275,"longitudine":13.3101858},{"denominazione":"Biblioteca comunale Morro d'Alba","latitudine":43.6013402,"longitudine":13.2136486},{"denominazione":"Biblioteca dell'Istituto Campana","latitudine":43.486384,"longitudine":13.485764},{"denominazione":"Biblioteca comunale Francesco Cini","latitudine":43.4865047,"longitudine":13.4849584},{"denominazione":"Biblioteca del Seminario vescovile","latitudine":43.4990717,"longitudine":13.4378102},{"denominazione":"Biblioteca del Convento S. Giuseppe da Copertino","latitudine":43.4864031,"longitudine":13.4838539},{"denominazione":"Biblioteca comunale","latitudine":43.6120006,"longitudine":13.1577606},{"denominazione":"Biblioteca comunale Giuseppe Tanfani","latitudine":43.603938,"longitudine":13.0584469},{"denominazione":"Biblioteca comunale \"Leggere insieme\"","latitudine":43.5756796,"longitudine":13.2039673},{"denominazione":"Biblioteca comunale","latitudine":43.4361433,"longitudine":12.8589946},{"denominazione":"Biblioteca dei frati minori del Convento La Pace","latitudine":43.4340068,"longitudine":12.8592426},{"denominazione":"Biblioteca comunale Antonelliana","latitudine":43.7156438,"longitudine":13.2196933},{"denominazione":"Biblioteca comunale","latitudine":43.446247,"longitudine":13.0251687},{"denominazione":"Biblioteca dell'Istituto nazionale riposo e cura per anziani - INRCA","latitudine":43.5966625,"longitudine":13.50728},{"denominazione":"Biblioteca comunale","latitudine":43.5803562,"longitudine":13.1662061},{"denominazione":"Biblioteca comunale di Castelfidardo","latitudine":43.4647574,"longitudine":13.5458217},{"denominazione":"Biblioteca comunale Emidio Bianchi","latitudine":43.43497,"longitudine":13.351017},{"denominazione":"Biblioteca della Santa Casa","latitudine":43.4412476563,"longitudine":13.6119769719},{"denominazione":"Biblioteca dei cappuccini","latitudine":43.6050173,"longitudine":13.1491429},{"denominazione":"Biblioteca del Centro sociale di educazione permanente","latitudine":43.4961036,"longitudine":13.3108492},{"denominazione":"Biblioteca diocesana Mastai Ferretti","latitudine":43.7147744,"longitudine":13.217499},{"denominazione":"Biblioteca comunale 'Il Posto delle Parole'","latitudine":43.544244,"longitudine":13.0374166},{"denominazione":"Biblioteca Comunale \"Corrado Danti\"","latitudine":43.43284,"longitudine":13.1855},{"denominazione":"Biblioteca comunale Planettiana","latitudine":43.523508,"longitudine":13.244844},{"denominazione":"Biblioteca comunale Planettiana - Sezione Ragazzi","latitudine":43.5289874,"longitudine":13.2486596},{"denominazione":"Biblioteca Economico Giuridica Sociologica - Centro di Ateneo di Documentazione - Universit\u00e0 Politecnica delle Marche","latitudine":43.6199617,"longitudine":13.5172717},{"denominazione":"Biblioteca Medica Torrette - Centro di Ateneo di Documentazione - Universit\u00e0 Politecnica delle Marche","latitudine":43.6033943,"longitudine":13.4556023},{"denominazione":"Biblioteca del Dipartimento di elettronica e automatica dell'Universit\u00e0 degli studi di Ancona","latitudine":43.5815143,"longitudine":13.5147553},{"denominazione":"Biblioteca del Dipartimento di scienze dei materiali e della terra dell'Universit\u00e0 degli studi di Ancona","latitudine":43.5815143,"longitudine":13.5147553},{"denominazione":"Biblioteca del Dipartimento di energetica dell'Universit\u00e0 degli studi di Ancona","latitudine":43.5815143,"longitudine":13.5147553},{"denominazione":"Biblioteca del Dipartimento di economia dell'Universit\u00e0 degli studi di Ancona","latitudine":43.6199617,"longitudine":13.5172717},{"denominazione":"Biblioteca del Dipartimento di matematica Vito Volterra dell'Universit\u00e0 degli studi di Ancona","latitudine":43.5815143,"longitudine":13.5147553},{"denominazione":"Biblioteca del Dipartimento di meccanica dell'Universit\u00e0 degli studi di Ancona","latitudine":43.5822728,"longitudine":13.5150631},{"denominazione":"Biblioteca comunale","latitudine":43.5808534,"longitudine":13.0245683},{"denominazione":"Biblioteca dell'Abbazia di S. Maria in Castagnola","latitudine":43.60073,"longitudine":13.3262941},{"denominazione":"Biblioteca di pace","latitudine":43.5639988,"longitudine":13.2501413},{"denominazione":"Biblioteca del Capitolo della cattedrale","latitudine":43.4678998,"longitudine":13.4742993},{"denominazione":"Biblioteca del Monastero delle benedettine di S. Luca","latitudine":43.3386171,"longitudine":12.9061221},{"denominazione":"Biblioteca comunale","latitudine":43.6089133938,"longitudine":12.9772135454},{"denominazione":"Biblioteca dell'Istituto di scienza e tecnica delle costruzioni della Facolt\u00e0 di ingegneria dell'Universit\u00e0 degli studi di Ancona","latitudine":43.5815143,"longitudine":13.5147553},{"denominazione":"Biblioteca dell'Istituto di anatomia e istologia patologica della Facolt\u00e0 di medicina e chirurgia dell'Universit\u00e0 degli studi di Ancona","latitudine":43.6064499,"longitudine":13.4547739},{"denominazione":"Biblioteca Mons. Vittorio Tomassetti del Pontificio Seminario Marchigiano PIO XI","latitudine":43.5880632,"longitudine":13.4949865},{"denominazione":"Biblioteca dell'Assemblea Legislativa - Consiglio regionale","latitudine":43.6171,"longitudine":13.5112165},{"denominazione":"Biblioteca della Soprintendenza Archivistica e bibliografica delle Marche","latitudine":43.5959358,"longitudine":13.5030263},{"denominazione":"Biblioteca dell'Istituto di disegno, architettura e urbanistica della Facolt\u00e0 di ingegneria dell'Universit\u00e0 degli studi di Ancona","latitudine":43.5815143,"longitudine":13.5147553},{"denominazione":"Biblioteca Tecnico Scientifica Biomedica - Centro di Ateneo di Documentazione - Polo Montedago - Universit\u00e0 Politecnica delle Marche","latitudine":43.581418,"longitudine":13.5149604},{"denominazione":"Biblioteca dell'Istituto musicale G.B. Pergolesi","latitudine":43.6185549,"longitudine":13.5127404},{"denominazione":"Biblioteca della Scuola diretta a fini speciali di scienze e tecniche cartarie dell'Universit\u00e0 degli studi di Camerino. Sede di Fabriano","latitudine":43.3399304,"longitudine":12.91223},{"denominazione":"Biblioteca dell'Istituto di studi storici, sociologici e linguistici della Facolt\u00e0 di economia dell'Universit\u00e0 degli studi di Ancona","latitudine":43.6199617,"longitudine":13.5172717},{"denominazione":"Biblioteca Fondazione Angelo Colocci","latitudine":43.5217915692,"longitudine":13.2422036895},{"denominazione":"Biblioteca comunale L. Marcelli Jidalla","latitudine":43.5135158,"longitudine":13.6215655},{"denominazione":"Biblioteca scolastica del Liceo scientifico Enrico Medi","latitudine":43.71326,"longitudine":13.22175},{"denominazione":"Biblioteca dell'Istituto Gramsci Marche","latitudine":43.6168276,"longitudine":13.508633},{"denominazione":"Biblioteca comunale Citt\u00e0 di Trecastelli","latitudine":43.671163,"longitudine":13.1065503},{"denominazione":"Biblioteca dell'Istituto professionale industria e artigianato Bettino Padovano","latitudine":43.7058544,"longitudine":13.2161599},{"denominazione":"Biblioteca di Casa Montessori Chiaravalle","latitudine":43.6019892,"longitudine":13.3258217},{"denominazione":"BIBLIOTECA DELL'ISTITUTO D'ISTRUZIONE SUPERIORE VOLTERRA-ELIA","latitudine":43.6085966,"longitudine":13.4543367},{"denominazione":"Biblioteca dell'Istituto tecnico commerciale e per geometri Ferruccio Corinaldesi","latitudine":43.708234,"longitudine":13.2148006},{"denominazione":"Biblioteca del Liceo classico Giulio Perticari","latitudine":43.7084366,"longitudine":13.2142098},{"denominazione":"Biblioteca La Fornace","latitudine":43.5058507542,"longitudine":13.136791627},{"denominazione":"Biblioteca Mattatoio n. 46","latitudine":43.6080547,"longitudine":13.5140028},{"denominazione":"Piccola Biblioteca della Shoah","latitudine":43.3494084,"longitudine":12.92619},{"denominazione":"Biblioteca comunale","latitudine":43.4291327,"longitudine":12.9354812},{"denominazione":"Biblioteca comunale","latitudine":43.4714845,"longitudine":13.0376638},{"denominazione":"Biblioteca comunale di Angeli di Rosora","latitudine":43.4719883,"longitudine":13.0660961},{"denominazione":"Biblioteca dell'Istituto Professionale di Stato per l'Industria e l'Artigianato G.B. Miliani","latitudine":43.33836,"longitudine":12.90851},{"denominazione":"Biblioteca dell'Istituto Tecnico Agrario Statale G. Vivarelli","latitudine":43.3327391,"longitudine":12.9068068},{"denominazione":"Biblioteca comunale","latitudine":43.5263599,"longitudine":13.391273},{"denominazione":"Biblioteca della CGIL - Confederazione generale italiana del lavoro","latitudine":43.6206639,"longitudine":13.5128984},{"denominazione":"Biblioteca dell'Assemblea legislativa delle Marche - Sezione Giuridica","latitudine":43.6163703,"longitudine":13.5164255},{"denominazione":"Biblioteca dell'Assemblea legislativa delle Marche - Archivio regionale della produzione editoriale","latitudine":43.6163703,"longitudine":13.5164255},{"denominazione":"Biblioteca \u201cElena e Giuseppe Chiostergi\u201d del Centro cooperativo mazziniano","latitudine":43.7144313,"longitudine":13.2212826},{"denominazione":"Biblioteca speciale e Centro di documentazione della Fondazione A.R.C.A. - Autismo Relazioni Cultura e Arte","latitudine":43.7143169,"longitudine":13.2172393},{"denominazione":"Biblioteca della Fondazione Cassa di Risparmio di Jesi","latitudine":43.5233349926,"longitudine":13.244784957},{"denominazione":"Biblioteca Comunale \"Sara Iommi\"","latitudine":43.5437115371,"longitudine":13.3871995092},{"denominazione":"Biblioteca dell'Istituto d'Istruzione Superiore Galilei","latitudine":43.5335708346,"longitudine":13.2546462265},{"denominazione":"Biblioteca Isola del Tesoro","latitudine":43.5768839,"longitudine":13.5142539},{"denominazione":"Biblioteca comunale \"Evaristo Breccia\"","latitudine":43.527308,"longitudine":13.44081},{"denominazione":"Biblioteca Poliarte","latitudine":43.6076733463,"longitudine":13.5136103921},{"denominazione":"BiblioLab \"Donatello\" dell'Istituto comprensivo \"Cittadella - Hack\"","latitudine":43.6085111,"longitudine":13.511455},{"denominazione":"Biblioteca del Liceo classico Vittorio Emanuele II","latitudine":43.5198299,"longitudine":13.238928},{"denominazione":"Biblioteca \u201cArmezzani\u201d","latitudine":43.344601,"longitudine":12.9265999},{"denominazione":"Biblioteca del Liceo Scientifico \"Da Vinci\"","latitudine":43.5255391,"longitudine":13.2328395},{"denominazione":"Biblioteca del Liceo Scientifico \"Volterra\"","latitudine":43.3447609,"longitudine":12.9271395},{"denominazione":"Biblioteca del Parco Naturale del Conero","latitudine":43.5189205,"longitudine":13.6181668},{"denominazione":"Biblioteca Ragazzi \"Armando Novelli\"","latitudine":43.6227295,"longitudine":13.5109449},{"denominazione":"Biblioteca della Pinacoteca F. Podesti","latitudine":43.6206769,"longitudine":13.5110236},{"denominazione":"MobyBook","latitudine":43.6010079,"longitudine":13.5047893},{"denominazione":"Biblioteca \"Bruno Cantarini\" del Liceo Artistico \u201cEdgardo Mannucci\"","latitudine":43.6093844,"longitudine":13.5126952},{"denominazione":"Biblioteca comunale per ragazzi \"Raul Bartoli\"","latitudine":null,"longitudine":null},{"denominazione":"Biblioteca della Fondazione Rosellini per la Letteratura Popolare Onlus","latitudine":43.7155114,"longitudine":13.2198601},{"denominazione":"Biblioteca Crocioni","latitudine":43.6104783,"longitudine":13.1586061},{"denominazione":"Biblioteca del Centro Informazione Statistica - Cis Istat - Sede delle Marche","latitudine":43.6171025,"longitudine":13.5149457},{"denominazione":"Biblioteca dell'Archivio Storico Cartiere Miliani","latitudine":43.3328356,"longitudine":12.8977346},{"denominazione":"Biblioteca \"A Spasso tra i libri\" di Torrette","latitudine":43.6078977,"longitudine":13.4539019},{"denominazione":"Biblioteca Federazione Clarisse Cappuccine","latitudine":43.3372546,"longitudine":12.9075354},{"denominazione":"Biblioteca Federico II Hohenstaufen","latitudine":43.5233258,"longitudine":13.2451342},{"denominazione":"Biblioteca diocesana","latitudine":45.7385389,"longitudine":7.3205677},{"denominazione":"Biblioteca capitolare del Duomo","latitudine":45.7386286,"longitudine":7.3177731},{"denominazione":"Biblioteca della Collegiata di S. Orso","latitudine":45.7394743,"longitudine":7.3256098},{"denominazione":"Biblioteca dell'Archivio storico regionale","latitudine":45.7354176,"longitudine":7.3226492},{"denominazione":"Biblioteca de l'Acad\u00e9mie Saint-Anselme d'Aoste","latitudine":45.7200147,"longitudine":7.2856659},{"denominazione":"Biblioteca comunale di ARVIER","latitudine":45.702962,"longitudine":7.1632385},{"denominazione":"Biblioteca comunale di Avise","latitudine":45.7089808,"longitudine":7.140276},{"denominazione":"Biblioteca comunale di Ayas","latitudine":45.8143363,"longitudine":7.6877628},{"denominazione":"Biblioteca comunale","latitudine":45.7026854,"longitudine":7.2403631},{"denominazione":"Biblioteca comunale di Bionaz","latitudine":45.8731306,"longitudine":7.4217677},{"denominazione":"Biblioteca comunale","latitudine":45.7601868,"longitudine":7.7303159},{"denominazione":"Biblioteca comunale di Champdepraz","latitudine":45.6857943,"longitudine":7.6577505},{"denominazione":"Biblioteca comunale Pierino Danna","latitudine":45.6242351,"longitudine":7.620673},{"denominazione":"Biblioteca Comprensoriale Ch\u00e2tillon","latitudine":45.7486315,"longitudine":7.6107149},{"denominazione":"Biblioteca comunale di Cogne","latitudine":45.608911,"longitudine":7.355732},{"denominazione":"Biblioteca comunale","latitudine":45.7945598,"longitudine":6.9699974},{"denominazione":"Biblioteca comprensoriale","latitudine":45.6028605,"longitudine":7.7723606},{"denominazione":"Biblioteca comunale di Doues","latitudine":45.7443363883,"longitudine":7.3452277796},{"denominazione":"Biblioteca Intercomunale Allein-Gignod","latitudine":45.778351,"longitudine":7.2961208},{"denominazione":"Biblioteca comunale di H\u00e8ne","latitudine":45.6129818,"longitudine":7.7339742},{"denominazione":"Biblioteca comunale Emile Chanoux","latitudine":45.692663,"longitudine":7.1825525},{"denominazione":"Biblioteca comunale","latitudine":45.6867791,"longitudine":7.855031},{"denominazione":"Biblioteca comunale","latitudine":45.65446,"longitudine":7.68676},{"denominazione":"Biblioteca comunale","latitudine":45.8106837,"longitudine":7.6143995},{"denominazione":"Biblioteca comunale Maison Debernard","latitudine":45.718035,"longitudine":6.948107},{"denominazione":"Biblioteca comunale di Oyace \"Aim\u00e9 Chenal\"","latitudine":45.8506113,"longitudine":7.3822574},{"denominazione":"Biblioteca comunale","latitudine":45.7457582,"longitudine":7.3906058},{"denominazione":"Biblioteca comunale","latitudine":45.8018406988,"longitudine":7.5703818135},{"denominazione":"Biblioteca comunale","latitudine":45.87581,"longitudine":7.62273},{"denominazione":"Biblioteca Comprensoriale di Verr\u00e8s","latitudine":45.6644968,"longitudine":7.6916251},{"denominazione":"Biblioteca comunale Ida Desandr\u00e9","latitudine":45.7340245,"longitudine":7.2968385},{"denominazione":"Biblioteca comunale","latitudine":45.7376109,"longitudine":7.3510928},{"denominazione":"Biblioteca biomedica dell'Ospedale di Aosta","latitudine":45.7407325,"longitudine":7.3146514},{"denominazione":"Biblioteca comunale","latitudine":45.821574,"longitudine":7.2304814},{"denominazione":"Biblioteca Intercomunale e Specializzata Walser","latitudine":45.7660142,"longitudine":7.8320861},{"denominazione":"Biblioteca comunale Mons. Giuseppe Capra","latitudine":45.6012522,"longitudine":7.7949318},{"denominazione":"Biblioteca comunale","latitudine":45.7643994,"longitudine":6.9848583},{"denominazione":"Biblioth\u00e8que Du Centre D'\u00c9tudes Francoprovena\u00e7ales Ren\u00e8 Willien","latitudine":45.7168593,"longitudine":7.1649386},{"denominazione":"Biblioteca comunale","latitudine":45.711667,"longitudine":7.226922},{"denominazione":"Biblioteca comunale Primo Levi","latitudine":45.750477,"longitudine":7.6463735},{"denominazione":"Biblioteca comunale","latitudine":45.824507,"longitudine":7.2134753},{"denominazione":"Biblioteca \"Maria Bonino\" dell'Ospedale regionale di Aosta","latitudine":45.7407325,"longitudine":7.3146514},{"denominazione":"Biblioteca comunale Abb\u00e9 Henry","latitudine":45.824678,"longitudine":7.324594},{"denominazione":"Biblioteca comunale","latitudine":45.7168593,"longitudine":7.1649386},{"denominazione":"Biblioteca comunale","latitudine":45.8237525,"longitudine":7.1831082},{"denominazione":"Biblioteca comunale","latitudine":45.8061911,"longitudine":7.591058},{"denominazione":"Biblioteca regionale comprensoriale di Morgex","latitudine":45.7580022,"longitudine":7.036757},{"denominazione":"Biblioteca regionale Bruno Salvadori","latitudine":45.7352924,"longitudine":7.315311},{"denominazione":"Biblioteca dell'Istituto storico della Resistenza e della Societ\u00e0 contemporanea in Valle d'Aosta","latitudine":45.7345523,"longitudine":7.3200964},{"denominazione":"Biblioteca del Club Alpino Italiano - CAI","latitudine":45.7314733,"longitudine":7.3075467},{"denominazione":"Biblioteca comunale di Sarre","latitudine":45.7185835,"longitudine":7.2552666},{"denominazione":"Biblioteca comunale","latitudine":45.7287354,"longitudine":7.3552981},{"denominazione":"Biblioteca comunale","latitudine":45.7211111,"longitudine":7.3262777},{"denominazione":"Biblioteca Intercomunale Allein-Gignod - Succursale di Allein","latitudine":45.8082168,"longitudine":7.2718234},{"denominazione":"Biblioteca comunale","latitudine":45.7200147,"longitudine":7.2856659},{"denominazione":"Biblioteca comunale","latitudine":45.7466127303,"longitudine":7.0723848275},{"denominazione":"Biblioteca comunale di Ollomont","latitudine":45.8493236409,"longitudine":7.3102370087},{"denominazione":"Biblioteca comunale di Rh\u00eames-Saint-Georges","latitudine":45.6536266,"longitudine":7.1554092},{"denominazione":"Biblioteca comunale Giuseppina Pallais","latitudine":45.7670053,"longitudine":7.3598758},{"denominazione":"Biblioteca comunale","latitudine":45.7530814395,"longitudine":7.5557470484},{"denominazione":"Biblioteca Intercomunale di Saint-Marcel, Nus, F\u00e9nis","latitudine":45.731260824,"longitudine":7.4447738056},{"denominazione":"Biblioteca comunale","latitudine":45.7343123,"longitudine":7.4163959},{"denominazione":"Biblioteca di Ateneo dell'Universit\u00e0 della Valle d'Aosta","latitudine":45.7431646,"longitudine":7.3181072},{"denominazione":"Biblioteca Comunale","latitudine":45.7282404273,"longitudine":7.3538451698},{"denominazione":"Biblioteca Intercomunale Abb\u00e9 Henry - Succursale di Roisan","latitudine":45.7830587938,"longitudine":7.3103301913},{"denominazione":"Biblioteca sociale del Centro Numismatico Valdostano","latitudine":45.73738,"longitudine":7.31133},{"denominazione":"Biblioteca del Centro di studi storico-letterari Natalino Sapegno - Onlus","latitudine":45.7579661,"longitudine":7.0340841},{"denominazione":"Biblioteca della Fondation Chanoux","latitudine":45.7366994,"longitudine":7.3170709},{"denominazione":"Centro di documentazione - Biblioteca tematica Maison de la montagne","latitudine":45.5902791,"longitudine":7.2093413},{"denominazione":"Biblioteca della Fondazione montagna sicura","latitudine":45.8205051,"longitudine":6.9634795},{"denominazione":"Biblioteca del Comit\u00e9 des Traditions Vald\u00f4taines","latitudine":45.736763,"longitudine":7.3194014},{"denominazione":"Biblioteca comunale","latitudine":42.977774,"longitudine":13.352086},{"denominazione":"Biblioteca dell'Archivio di Stato di Ascoli Piceno","latitudine":42.857483,"longitudine":13.5668552},{"denominazione":"Biblioteca comunale Giulio Gabrielli","latitudine":42.855171892,"longitudine":13.5785382432},{"denominazione":"Biblioteca del Convento dei cappuccini","latitudine":43.1542337,"longitudine":13.7042692},{"denominazione":"Biblioteca civica Romolo Spezioli","latitudine":43.161674,"longitudine":13.7179569},{"denominazione":"Biblioteca del Seminario arcivescovile di Fermo F. De Angelis","latitudine":43.1669428,"longitudine":13.7038038},{"denominazione":"Biblioteca della Comunit\u00e0 di Capodarco di Fermo","latitudine":43.1963656363,"longitudine":13.780002609},{"denominazione":"Biblioteca comunale Fratelli Ermenegildo e Francesco Catalini","latitudine":43.1118000937,"longitudine":13.6035505417},{"denominazione":"Biblioteca tomistica S. Alessio","latitudine":42.8896781,"longitudine":13.7727031},{"denominazione":"Biblioteca comunale","latitudine":42.9712567,"longitudine":13.5873288},{"denominazione":"Biblioteca comunale Monsignor Germano Liberati","latitudine":43.1323911,"longitudine":13.5376641},{"denominazione":"Biblioteca comunale Francesco Vecchioli","latitudine":43.01819,"longitudine":13.53491},{"denominazione":"Biblioteca comunale Luigi Centanni","latitudine":43.0857452,"longitudine":13.7169609},{"denominazione":"Biblioteca comunale","latitudine":42.933965,"longitudine":13.689355},{"denominazione":"Biblioteca comunale Luigi Mannocchi","latitudine":43.0679628,"longitudine":13.6581398},{"denominazione":"Biblioteca diocesana di Ripatransone","latitudine":43.00168,"longitudine":13.7631189},{"denominazione":"Biblioteca comunale Aldo Gabrielli","latitudine":42.997755,"longitudine":13.760806},{"denominazione":"Biblioteca multimediale Giuseppe Lesca","latitudine":42.9435452,"longitudine":13.8837247},{"denominazione":"Biblioteca comunale","latitudine":43.184398,"longitudine":13.607693},{"denominazione":"Biblioteca civica \"Gino Pieri\"","latitudine":43.1793763,"longitudine":13.7935688},{"denominazione":"Biblioteca comunale \"Carlo Cuini\"","latitudine":43.2586617,"longitudine":13.7586452},{"denominazione":"Biblioteca comunale Giulio Gabrielli. Posto di prestito di Monticelli","latitudine":42.8507575,"longitudine":13.6143848},{"denominazione":"Biblioteca comunale Antonio Santori","latitudine":43.2323164,"longitudine":13.6870468},{"denominazione":"Biblioteca del Convento dei frati minori S. Giacomo della Marca","latitudine":42.9203823,"longitudine":13.8332193},{"denominazione":"Biblioteca del Convento dei cappuccini","latitudine":42.9354214,"longitudine":13.7004887},{"denominazione":"Biblioteca di Architettura e Design \"F.M. Quinterio\" dell'Universit\u00e0 degli studi di Camerino. Sede di Ascoli Piceno","latitudine":42.8524137,"longitudine":13.5748035},{"denominazione":"BIBLIOTECA COMUNALE ENZO MASSIMILIANO CONTI","latitudine":43.2329248,"longitudine":13.6313052},{"denominazione":"Biblioteca comunale","latitudine":42.8975948,"longitudine":13.8501806},{"denominazione":"Biblioteca comunale. Sezione di Centobuchi","latitudine":42.8975948,"longitudine":13.8501806},{"denominazione":"Biblioteca dell'Istituto geografico polare \"Silvio Zavatti\"","latitudine":43.1677584,"longitudine":13.7285593},{"denominazione":"Biblioteca malacologica","latitudine":43.0335786,"longitudine":13.8564008},{"denominazione":"Biblioteca Provinciale di Storia Contemporanea 'Ugo Toria'","latitudine":42.8495808,"longitudine":13.5701523},{"denominazione":"Biblioteca comunale di Arquata del Tronto","latitudine":42.9422783,"longitudine":13.8843137},{"denominazione":"Biblioteca comunale","latitudine":42.8776552,"longitudine":13.7376276},{"denominazione":"Biblioteca Francesco Antonio Marcucci","latitudine":42.8565962,"longitudine":13.570466},{"denominazione":"Biblioteca benedettina del Monastero S. Giuliano","latitudine":43.1657259,"longitudine":13.7246264},{"denominazione":"Biblioteca del seminario vescovile di Montalto delle Marche","latitudine":42.9889714,"longitudine":13.6086103},{"denominazione":"Biblioteca del Museo archeologico statale","latitudine":42.8536927,"longitudine":13.5778804},{"denominazione":"Biblioteca dell'Archivio di Stato di Fermo","latitudine":43.1606197994,"longitudine":13.7189804491},{"denominazione":"Biblioteca del Conservatorio statale di musica \"Giovanni Battista Pergolesi\"","latitudine":43.161813,"longitudine":13.717022},{"denominazione":"Biblioteca comunale","latitudine":43.0233287,"longitudine":13.8598527},{"denominazione":"Biblioteca comunale Mario Rivosecchi","latitudine":42.9926863,"longitudine":13.8694785},{"denominazione":"Biblioteca comunale","latitudine":42.873634,"longitudine":13.7076718},{"denominazione":"Biblioteca civica Romolo Spezioli. Sezione ragazzi","latitudine":43.161674,"longitudine":13.7179569},{"denominazione":"B.U.C.M. - Biblioteca Universit\u00e0 Conservatorio Machinery","latitudine":43.161748,"longitudine":13.717582},{"denominazione":"Biblioteca diocesana di Ascoli Piceno","latitudine":42.8533408,"longitudine":13.5779214},{"denominazione":"Biblioteca Provinciale di Storia Contemporanea di Fermo","latitudine":43.1610544,"longitudine":13.7125896},{"denominazione":"Biblioteca scolastica Gianni Rodari","latitudine":43.2442686,"longitudine":13.7683453},{"denominazione":"Biblioteca comunale della Sibilla","latitudine":42.899373,"longitudine":13.327005},{"denominazione":"Biblioteca scolastica Istituto professionale di Stato per l'industria e l'artigianato","latitudine":42.9293957,"longitudine":13.8925159},{"denominazione":"Biblioteca scolastica della scuola secondaria di primo grado Cappella-Curzi","latitudine":42.9098038,"longitudine":13.8924231},{"denominazione":"Biblioteca del Centro culturale J. Maritain","latitudine":43.0248099,"longitudine":13.8576712},{"denominazione":"Biblioteca comunale Belvedere","latitudine":42.94443,"longitudine":13.8142025},{"denominazione":"Biblioteca dell'Archeoclub","latitudine":43.025423,"longitudine":13.859204},{"denominazione":"Biblioteca civica Pietro Spinucci","latitudine":42.96793,"longitudine":13.491123},{"denominazione":"Biblioteca della Fondazione Hispano Latina","latitudine":42.8775378,"longitudine":13.7471113},{"denominazione":"Biblioteca comunale","latitudine":42.8984555,"longitudine":13.7270306},{"denominazione":"Biblioteca comunale","latitudine":42.8815678,"longitudine":13.4931664},{"denominazione":"Biblioteca del Liceo Scientifico e delle Scienze Umane \"Luigi Mercantini\"","latitudine":42.9999358,"longitudine":13.7631547},{"denominazione":"Biblioteca comunale per ragazzi","latitudine":42.8343212,"longitudine":13.6306755},{"denominazione":"Biblioteca scolastica ISC Folignano-Maltignano","latitudine":42.8343764,"longitudine":13.6328552},{"denominazione":"Biblioteca Consorti Malavolta dell'ISC Cupra Marittima Ripatransone","latitudine":42.9975635,"longitudine":13.763242},{"denominazione":"Biblioteca comunale","latitudine":41.734017,"longitudine":14.034272},{"denominazione":"Biblioteca don Orione","latitudine":42.0354183,"longitudine":13.425821},{"denominazione":"Fondazione biblioteca Bruno Cassinelli","latitudine":42.0350264,"longitudine":13.4243998},{"denominazione":"Biblioteca comunale","latitudine":42.4511486,"longitudine":13.2807352},{"denominazione":"Biblioteca comunale A. De Gasperis","latitudine":42.0228684,"longitudine":13.8471927},{"denominazione":"Biblioteca comunale","latitudine":42.0112366,"longitudine":14.04068},{"denominazione":"Biblioteca Oasi S. Francesco d'Assisi","latitudine":42.00762,"longitudine":14.03397},{"denominazione":"Biblioteca comunale","latitudine":41.9148271,"longitudine":13.427455},{"denominazione":"Centro di lettura presso la sede del comune di Cansano","latitudine":42.0040812,"longitudine":14.0114536},{"denominazione":"Biblioteca del Convento di S. Giovanni da Capestrano","latitudine":42.271847,"longitudine":13.7632406},{"denominazione":"Biblioteca comunale","latitudine":42.5223184,"longitudine":13.3005771},{"denominazione":"Biblioteca comunale","latitudine":42.299178,"longitudine":13.682873},{"denominazione":"Biblioteca comunale","latitudine":42.3660001,"longitudine":13.7245649},{"denominazione":"Biblioteca comunale Vincenzo Balzano","latitudine":41.7845349,"longitudine":14.1088275},{"denominazione":"Biblioteca di abruzzesistica","latitudine":42.130497,"longitudine":13.7307312},{"denominazione":"Biblioteca del Convento di S. Maria Valleverde","latitudine":42.087713,"longitudine":13.5382359},{"denominazione":"Biblioteca comunale","latitudine":41.7650549,"longitudine":13.94281},{"denominazione":"Biblioteca comunale","latitudine":41.8839826,"longitudine":13.5844317},{"denominazione":"Biblioteca comunale","latitudine":42.1219109,"longitudine":13.8403907},{"denominazione":"Biblioteca dell'Archivio di Stato di L'Aquila","latitudine":42.3405298,"longitudine":13.4605422},{"denominazione":"Biblioteca arcivescovile cardinal Carlo Confalonieri","latitudine":42.3428835,"longitudine":13.4120804},{"denominazione":"Biblioteca San Giuliano dei Frati Minori","latitudine":42.3729221,"longitudine":13.3920195},{"denominazione":"Biblioteca del Convento di S. Chiara","latitudine":42.3499023,"longitudine":13.391574},{"denominazione":"Biblioteca Regionale Salvatore Tommasi","latitudine":42.3393984,"longitudine":13.4651},{"denominazione":"Biblioteca della Soprintendenza Archeologia, Belle Arti e paesaggio per le province di L\u2019Aquila e Teramo","latitudine":42.3548198,"longitudine":13.4005928},{"denominazione":"Biblioteca Anton Ludovico Antinori della Deputazione di storia patria negli Abruzzi - DASP","latitudine":42.3421921,"longitudine":13.4622859},{"denominazione":"Biblioteca comunale","latitudine":41.9536566243,"longitudine":13.4734449852},{"denominazione":"Biblioteca comunale di Molina Aterno","latitudine":42.1491981,"longitudine":13.7362685},{"denominazione":"Bibliomediateca \"Lella Scotti\"","latitudine":41.861607,"longitudine":13.436845},{"denominazione":"Biblioteca comunale Altiero Spinelli","latitudine":42.2865702,"longitudine":13.4762079},{"denominazione":"Biblioteca comunale","latitudine":41.7801883,"longitudine":13.8298609},{"denominazione":"Biblioteca comunale","latitudine":41.9550616,"longitudine":13.6452811},{"denominazione":"Biblioteca comunale","latitudine":42.1332785,"longitudine":13.5179585},{"denominazione":"Biblioteca comunale","latitudine":42.050957,"longitudine":13.9928317},{"denominazione":"Biblioteca comunale","latitudine":41.8066287,"longitudine":13.7900072},{"denominazione":"Biblioteca comunale","latitudine":42.023905,"longitudine":13.6661527},{"denominazione":"Biblioteca comunale Leone e Natalia Ginzburg","latitudine":42.4360493,"longitudine":13.301676},{"denominazione":"Biblioteca comunale","latitudine":42.0988628,"longitudine":13.8743452},{"denominazione":"Biblioteca dell'Agenzia per la promozione culturale \"Mario Arpea\"","latitudine":42.2053300988,"longitudine":13.5196623693},{"denominazione":"Biblioteca comunale","latitudine":42.0082098,"longitudine":13.6275521},{"denominazione":"Biblioteca comunale","latitudine":42.1828567,"longitudine":13.7694291},{"denominazione":"Biblioteca comunale","latitudine":42.3423891,"longitudine":13.6460812},{"denominazione":"Biblioteca comunale","latitudine":42.063402,"longitudine":13.34242},{"denominazione":"Biblioteca comunale","latitudine":42.1523116,"longitudine":13.6794904},{"denominazione":"Biblioteca comunale Publio Ovidio Nasone","latitudine":42.048803,"longitudine":13.923612},{"denominazione":"Biblioteca dell'Archivio di Stato di L'Aquila. Sezione di Sulmona","latitudine":42.0423811099,"longitudine":13.9278076245},{"denominazione":"Biblioteca diocesana","latitudine":42.0472454,"longitudine":13.9262445},{"denominazione":"Biblioteca Beato Tommaso da Celano","latitudine":42.0640995,"longitudine":13.254805},{"denominazione":"Biblioteca comunale Petronilla Paolini Massimi","latitudine":42.0682988,"longitudine":13.2511076},{"denominazione":"Biblioteca comunale","latitudine":41.9359351,"longitudine":13.8359019},{"denominazione":"Biblioteca comunale","latitudine":41.774524,"longitudine":13.9433828},{"denominazione":"Biblioteca comunale","latitudine":42.1250423,"longitudine":13.8166157},{"denominazione":"Biblioteca del Convento dei frati francescani","latitudine":42.091641,"longitudine":13.3604319},{"denominazione":"Biblioteca comunale","latitudine":41.9363177,"longitudine":13.9758003},{"denominazione":"Biblioteca dell'Agenzia per la Promozione Culturale \"Ignazio Silone\"","latitudine":42.0420003,"longitudine":13.4214282},{"denominazione":"Sala Studio P. Osvaldo Lemme","latitudine":42.0845843,"longitudine":13.5410003},{"denominazione":"Biblioteca comunale","latitudine":42.0604457,"longitudine":13.6260848},{"denominazione":"Biblioteca comunale","latitudine":42.0932835,"longitudine":13.3635456},{"denominazione":"Biblioteca comunale","latitudine":41.9272302,"longitudine":14.0652887},{"denominazione":"Biblioteca comunale","latitudine":41.9728677,"longitudine":13.9601213},{"denominazione":"Biblioteca comunale","latitudine":42.3302425,"longitudine":13.5365073},{"denominazione":"Biblioteca \"Giuseppe Capograssi\"","latitudine":42.0551313,"longitudine":13.9250031},{"denominazione":"Biblioteca S. Maria Orientale","latitudine":42.0598851,"longitudine":13.2611008},{"denominazione":"Biblioteca del Museo di speleologia V. Rivera","latitudine":42.3498479,"longitudine":13.3995091},{"denominazione":"Biblioteca dell'area medica - Polo Coppito - Universit\u00e0 degli studi dell'Aquila","latitudine":42.3673275261,"longitudine":13.3517575264},{"denominazione":"Biblioteca del Centro di studi peligni Antonio De Nino","latitudine":42.0994632,"longitudine":13.874653},{"denominazione":"Biblioteca dell'area di scienze umane. Sezione lettere e filosofia - Polo Centro - Universit\u00e0 degli studi dell'Aquila","latitudine":42.355352,"longitudine":13.4012545},{"denominazione":"Biblioteca dell'area scientifica. Sezione scienze - Polo Coppito - Universit\u00e0 degli studi dell'Aquila","latitudine":42.3675773,"longitudine":13.3506586},{"denominazione":"Biblioteca dell'area di ingegneria - Polo Roio - Universit\u00e0 degli studi dell'Aquila","latitudine":42.3372433388,"longitudine":13.376409916},{"denominazione":"Biblioteca Muzio Febonio","latitudine":42.0369747,"longitudine":13.4253718},{"denominazione":"Biblioteca S. Pio X","latitudine":42.358946,"longitudine":13.4066678},{"denominazione":"Biblioteca del Convento di S. Francesco","latitudine":42.0922482,"longitudine":13.7115408},{"denominazione":"Biblioteca comunale \"Eugenio Maria Beranger\"","latitudine":41.9148271,"longitudine":13.427455},{"denominazione":"Biblioteca dell'Associazione Italia Russia","latitudine":42.3476555,"longitudine":13.3986836},{"denominazione":"Biblioteca dell'area di economia - Polo Centro - Universit\u00e0 degli studi dell'Aquila","latitudine":42.3546210344,"longitudine":13.4102057496},{"denominazione":"Biblioteca della Scuola Superiore G. Reiss Romoli","latitudine":42.4134353,"longitudine":13.4974258},{"denominazione":"Biblioteca comunale Vincenzo Balzano. Sezione staccata di Roccacinquemiglia","latitudine":41.8483185,"longitudine":14.0822841},{"denominazione":"Biblioteca comunale","latitudine":41.9088598,"longitudine":13.8787466},{"denominazione":"Biblioteca comunale","latitudine":41.7537921,"longitudine":14.0638646},{"denominazione":"Biblioteca dell'area di scienze umane - Sezione scienze della formazione - Polo Centro - Universit\u00e0 degli studi dell'Aquila","latitudine":42.3557857,"longitudine":13.4001641},{"denominazione":"Biblioteca delle Donne - Associazione Donatella Tellini ETS","latitudine":42.3608613,"longitudine":13.4074016},{"denominazione":"Biblioteca dell'area scientifica. Sezione scienze motorie - Polo Coppito - Universit\u00e0 degli studi dell'Aquila","latitudine":42.3684969,"longitudine":13.3459484},{"denominazione":"Biblioteca scolastica dell'Istituto di istruzione superiore T. Patini","latitudine":41.7813717,"longitudine":14.1078239},{"denominazione":"Biblioteca Giovanni Tantillo dell'Istituto Cinematografico dell'Aquila La Lanterna Magica","latitudine":42.3393984,"longitudine":13.4651},{"denominazione":"Biblioteca della Scuola regionale di sport CONI Abruzzo","latitudine":42.3497878,"longitudine":13.4090329},{"denominazione":"Biblioteca della Montagna \"Carlo Tobia\"","latitudine":42.3503355,"longitudine":13.3961416},{"denominazione":"Biblioteca scolastica Adamo Petrarca","latitudine":41.785938,"longitudine":14.109878},{"denominazione":"Biblioteca D'Angelo's House","latitudine":42.0081234,"longitudine":13.8973142},{"denominazione":"Biblioteca Istituto comprensivo B. Croce","latitudine":41.8102781,"longitudine":13.7910727},{"denominazione":"Biblioteca dell' Istituto Istruzione Ovidio","latitudine":42.042883,"longitudine":13.9309045},{"denominazione":"Biblioteca della Fondazione Giorgio de Marchis Bonanni d'Ocre","latitudine":42.3494754686,"longitudine":13.3993686858},{"denominazione":"Biblioteca Susanna Pezzopane del Conservatorio di musica Alfredo Casella","latitudine":42.3532323954,"longitudine":13.4178979836},{"denominazione":"Biblioteca del Consiglio Regionale dell'Abruzzo Giuseppe Bolino","latitudine":42.3449088,"longitudine":13.3985027},{"denominazione":"Biblioteca del Parco Nazionale d'Abruzzo, Lazio e Molise","latitudine":41.807939,"longitudine":13.787503},{"denominazione":"Biblioteca \"Nicola Irti\" per gli studi storici giuridici sociali","latitudine":42.0346672,"longitudine":13.4254982},{"denominazione":"Biblioteca dell'Accademia di belle arti L'Aquila","latitudine":42.3660490567,"longitudine":13.3727476},{"denominazione":"Biblioteca Regionale Castel di Sangro","latitudine":41.7830961,"longitudine":14.1097764},{"denominazione":"Biblioteca dell'Istituto Omnicomprensivo di Carsoli","latitudine":42.0961377,"longitudine":13.0830786},{"denominazione":"Biblioteca \u201cNino Ruscitti\u201d","latitudine":42.0224845,"longitudine":13.8614527},{"denominazione":"Biblioteca comunale","latitudine":43.5412008,"longitudine":12.0546861},{"denominazione":"Biblioteca dei frati Cappuccini","latitudine":43.2941559,"longitudine":12.0008402},{"denominazione":"Biblioteca Centro di Ricerca Foreste e Legno","latitudine":43.4811661,"longitudine":11.8781145},{"denominazione":"Biblioteca dell'Archivio di Stato di Arezzo","latitudine":43.4649386475,"longitudine":11.8830024545},{"denominazione":"Biblioteca dell'Accademia Petrarca di lettere, arti e scienze","latitudine":43.4660873,"longitudine":11.8835402},{"denominazione":"Biblioteca diocesana del Seminario vescovile di Arezzo","latitudine":43.4669649,"longitudine":11.8809695},{"denominazione":"Biblioteca comunale","latitudine":43.7091924,"longitudine":12.1845305},{"denominazione":"Biblioteca comunale Giovanni Giovannini","latitudine":43.6955677,"longitudine":11.8167938},{"denominazione":"Biblioteca comunale","latitudine":43.478072,"longitudine":11.615345},{"denominazione":"Biblioteca Gulliver","latitudine":43.5679859,"longitudine":11.8649827},{"denominazione":"Biblioteca Michelangiolesca","latitudine":43.6431871,"longitudine":11.9854523},{"denominazione":"Biblioteca comunale Aldo Merlini - Castelfranco di Sopra","latitudine":43.6212988,"longitudine":11.5533693},{"denominazione":"Biblioteca comunale","latitudine":43.5298898,"longitudine":11.7632376},{"denominazione":"Biblioteca comunale","latitudine":43.3419378,"longitudine":11.9232098},{"denominazione":"Biblioteca comunale Venturino Venturi","latitudine":43.5219392,"longitudine":11.48871},{"denominazione":"Biblioteca comunale","latitudine":43.6614155,"longitudine":11.8802973},{"denominazione":"Biblioteca del Convento della Verna","latitudine":43.7084444,"longitudine":11.9318888},{"denominazione":"Biblioteca comunale","latitudine":43.6984444,"longitudine":11.9361111},{"denominazione":"Biblioteca comunale","latitudine":43.4052951,"longitudine":11.7681996},{"denominazione":"Biblioteca del Seminario vescovile","latitudine":43.275976,"longitudine":11.984464},{"denominazione":"Biblioteca del Comune e dell'Accademia Etrusca di Cortona","latitudine":43.275308,"longitudine":11.9850319},{"denominazione":"Biblioteca comunale","latitudine":43.2525131,"longitudine":11.8186526},{"denominazione":"Biblioteca dei Ragazzi di Montalto","latitudine":43.4693957,"longitudine":11.6852782},{"denominazione":"Biblioteca comunale","latitudine":43.3058199,"longitudine":11.7872776},{"denominazione":"Biblioteca comunale Card. Giovanni Colombo","latitudine":43.3315853,"longitudine":11.7245101},{"denominazione":"Biblioteca comunale","latitudine":43.4882804,"longitudine":12.1075513},{"denominazione":"Biblioteca comunale di Montevarchi - Ginestra Fabbrica della Conoscenza","latitudine":43.5200609,"longitudine":11.5691145},{"denominazione":"Biblioteca comunale - Centro Culturale di Memorie e Contemporaneit\u00e0 e Biblioteca dei Ragazzi di Montalto","latitudine":43.4703803,"longitudine":11.6866297},{"denominazione":"Biblioteca comunale","latitudine":43.668282,"longitudine":12.0420514},{"denominazione":"Biblioteca comunale Rilli Vettori","latitudine":43.7227848907,"longitudine":11.7672040966},{"denominazione":"Biblioteca comunale Cristoforo Landino","latitudine":43.7900879,"longitudine":11.7215569},{"denominazione":"Biblioteca comunale Masaccio","latitudine":43.5662886,"longitudine":11.5309159},{"denominazione":"Biblioteca vescovile","latitudine":43.5708477,"longitudine":12.1413587},{"denominazione":"Biblioteca comunale Dionisio Roberti","latitudine":43.569965,"longitudine":12.1430692},{"denominazione":"Biblioteca comunale","latitudine":43.7083955,"longitudine":12.2978698},{"denominazione":"Biblioteca comunale Pratovecchio Stia - Sez. bambini e ragazzi \"P. Borri\"","latitudine":43.7995441,"longitudine":11.7075956},{"denominazione":"Biblioteca comunale","latitudine":43.600981,"longitudine":11.78893},{"denominazione":"Biblioteca del Monastero di Camaldoli","latitudine":43.7931013,"longitudine":11.8204606},{"denominazione":"Biblioteca comunale Le Fornaci","latitudine":43.5533553,"longitudine":11.5898485},{"denominazione":"Biblioteca Poggiana","latitudine":43.5242165,"longitudine":11.5672405},{"denominazione":"Biblioteca citt\u00e0 di Arezzo","latitudine":43.4657695,"longitudine":11.8839869},{"denominazione":"Biblioteca di area umanistica - Sede di Arezzo - dell'Universit\u00e0 di Siena","latitudine":43.4624949235,"longitudine":11.87128887},{"denominazione":"Biblioteca del Comune e dell'Accademia etrusca. Sezione staccata di Camucia","latitudine":43.2591899,"longitudine":11.975325},{"denominazione":"Biblioteca comunale","latitudine":43.7439861,"longitudine":11.7094184},{"denominazione":"Biblioteca comunale Ilaria Alpi - Pian di Sc\u00f2","latitudine":43.6401758,"longitudine":11.547602},{"denominazione":"Biblioteca del Convento dei frati Cappuccini","latitudine":43.7370927,"longitudine":11.7606879},{"denominazione":"Biblioteca del Conservatorio delle Suore agostiniane","latitudine":43.5648327,"longitudine":11.5308165},{"denominazione":"Biblioteca del Sacro Eremo di Camaldoli","latitudine":43.7327705,"longitudine":11.7640259},{"denominazione":"Biblioteca citt\u00e0 di Arezzo. Sezione ragazzi","latitudine":43.4655406,"longitudine":11.8836832},{"denominazione":"Biblioteca della Soprintendenza Archeologia Belle Arti e Paesaggio per le provincie di Siena Grosseto e Arezzo - Sede di Arezzo","latitudine":43.4671195,"longitudine":11.881666},{"denominazione":"Biblioteca della Camera di commercio, industria, artigianato e agricoltura - CCIAA","latitudine":43.4698236,"longitudine":11.8578305},{"denominazione":"Biblioteca comunale","latitudine":43.5941775436,"longitudine":11.6304112354},{"denominazione":"Biblioteca della Fondazione Archivio diaristico nazionale","latitudine":43.6693863,"longitudine":12.0420381},{"denominazione":"Biblioteca del Convento di S. Giovanni Battista","latitudine":43.4401317,"longitudine":11.8540346},{"denominazione":"Sala di Lettura e documentazione interculturale \"Malala Yousafzai\" di Arezzo","latitudine":43.4624482,"longitudine":11.8710582},{"denominazione":"Bibliotheca Antiqua di Aboca Museum","latitudine":43.570821,"longitudine":12.143017},{"denominazione":"Biblioteca della Fondazione Piero della Francesca","latitudine":43.571126,"longitudine":12.1425096},{"denominazione":"CRED Centro Risorse Educative e Didattiche Mediateca Banca della Memoria","latitudine":43.7264676949,"longitudine":11.7725586891},{"denominazione":"Biblioteca del Monastero SS. Trinit\u00e0","latitudine":43.723211,"longitudine":11.7684785},{"denominazione":"Biblioteca scolastica dell'Istituto Comprensivo di Bucine","latitudine":43.4779824,"longitudine":11.6177731},{"denominazione":"Biblioteca scolastica dell\u2019Istituto Comprensivo IV Novembre","latitudine":43.4582323,"longitudine":11.8730887},{"denominazione":"BIBLIOTECA DELL\u2019ISTITUTO BENEDETTO VARCHI","latitudine":43.5312663,"longitudine":11.5757451},{"denominazione":"Biblioteca Licei Giovanni da Castiglione","latitudine":43.339856,"longitudine":11.923503},{"denominazione":"Biblioteca civica","latitudine":44.7905046,"longitudine":8.2514766},{"denominazione":"Biblioteca della Fondazione Centro di Studi Alfieriani","latitudine":44.8990934,"longitudine":8.1983747},{"denominazione":"Fondazione Biblioteca astense Giorgio Faletti","latitudine":44.8993483,"longitudine":8.1989782},{"denominazione":"Biblioteca del Seminario vescovile","latitudine":44.9003762,"longitudine":8.2013765},{"denominazione":"Biblioteca del CREA-VE - Centro di Ricerca Viticoltura ed Enologia - Sede di Asti","latitudine":44.9031254,"longitudine":8.2056974},{"denominazione":"Biblioteca dell'Archivio di Stato di Asti","latitudine":44.8957768,"longitudine":8.1989589},{"denominazione":"Biblioteca civica","latitudine":44.73846,"longitudine":8.3322},{"denominazione":"Biblioteca civica","latitudine":45.0063786,"longitudine":8.2573105},{"denominazione":"Biblioteca comunale di Castagnole Lanze","latitudine":44.7495161,"longitudine":8.1509477},{"denominazione":"Biblioteca civica Sebastiano Filipello","latitudine":45.0409567,"longitudine":7.9618038},{"denominazione":"Biblioteca comunale","latitudine":44.8564804,"longitudine":8.1229291},{"denominazione":"Biblioteca civica \"Eugenio Rocca\"","latitudine":45.087706,"longitudine":8.0394432},{"denominazione":"Biblioteca civica","latitudine":45.0405827,"longitudine":8.311928},{"denominazione":"Biblioteca comunale","latitudine":44.80953,"longitudine":8.38164},{"denominazione":"Biblioteca civica","latitudine":44.8172086,"longitudine":8.2945919},{"denominazione":"Biblioteca civica Franco Montanari","latitudine":45.0514654,"longitudine":8.2635058},{"denominazione":"Biblioteca civica \"Don Alfredo Bianco\"","latitudine":44.847774,"longitudine":8.2182158},{"denominazione":"Biblioteca civica","latitudine":44.6983672,"longitudine":8.3905403},{"denominazione":"Biblioteca civica comunale 'Enrico Paulucci'","latitudine":44.8185,"longitudine":8.24075},{"denominazione":"Biblioteca civica \"Umberto Eco\"","latitudine":44.7733355894,"longitudine":8.3568677116},{"denominazione":"Biblioteca civica","latitudine":44.9571294,"longitudine":8.2586128},{"denominazione":"BIBLIOTECA MASSIMO QUAGLINO","latitudine":44.93748,"longitudine":8.342948},{"denominazione":"Biblioteca civica G. Nosengo","latitudine":44.8335224,"longitudine":8.066349},{"denominazione":"Biblioteca civica","latitudine":44.82003,"longitudine":8.11001},{"denominazione":"Biblioteca civica","latitudine":44.8961633,"longitudine":7.9652575},{"denominazione":"Biblioteca civica","latitudine":44.9421551,"longitudine":7.93768},{"denominazione":"Biblioteca civica","latitudine":44.807212,"longitudine":8.317095},{"denominazione":"Biblioteca dell'Archivio storico comunale","latitudine":45.0551311,"longitudine":8.0495485},{"denominazione":"Biblioteca dell'Istituto per la Storia della Resistenza e della Societa' Contemporanea In Asti","latitudine":44.8993179,"longitudine":8.20032},{"denominazione":"Biblioteca civica","latitudine":45.0207406,"longitudine":7.9500678},{"denominazione":"Biblioteca civica Gigi Monticone","latitudine":44.7208797,"longitudine":8.2846911},{"denominazione":"Biblioteca civica","latitudine":44.8782114,"longitudine":8.3169814},{"denominazione":"Biblioteca civica","latitudine":44.8724661,"longitudine":8.3599099},{"denominazione":"Biblioteca del CEPROS Asti ONLUS Ettore e Teresa De Benedetti","latitudine":44.8993359494,"longitudine":8.2003119534},{"denominazione":"Biblioteca civica Margherita Pelletta","latitudine":44.9792515,"longitudine":8.0619853},{"denominazione":"Biblioteca civica","latitudine":44.93594,"longitudine":8.07142},{"denominazione":"Biblioteca civica","latitudine":44.7529843,"longitudine":8.296273},{"denominazione":"Biblioteca comunale","latitudine":44.8223694,"longitudine":8.3591571},{"denominazione":"Biblioteca civica Paolo Luotto","latitudine":44.913211,"longitudine":8.0352483},{"denominazione":"BIBLIOTECA CIVICA \"FRANCO E CAROLINA FRANZETTI\"","latitudine":44.6485324,"longitudine":8.325752},{"denominazione":"Biblioteca del Centro culturale cittadino San Secondo","latitudine":44.90048,"longitudine":8.2032701},{"denominazione":"Biblioteca comunale \"Dr. Guglielmo Amalberto\"","latitudine":44.8707531,"longitudine":7.9927494},{"denominazione":"Biblioteca della Fondazione Pietro Badoglio","latitudine":45.0405434,"longitudine":8.3118304},{"denominazione":"Biblioteca dell'Istituto musicale Giuseppe Verdi","latitudine":44.9015409,"longitudine":8.1997705},{"denominazione":"BIBLIOTECA CIVICA MARIA LUIGIA AGAGLIATE","latitudine":45.0040792082,"longitudine":8.0080963558},{"denominazione":"Biblioteca comunale 'Carlo Fruttero' di Passerano Marmorito","latitudine":45.0563987,"longitudine":8.0190735},{"denominazione":"Biblioteca civica \"Luciano Rapetti\"","latitudine":44.7541736109,"longitudine":8.4244250914},{"denominazione":"Biblioteca della Fondazione Giovanni Goria","latitudine":44.9030921,"longitudine":8.2109981},{"denominazione":"BIBLIOTECA DELLA FONDAZIONE DELLA CASSA DI RISPARMIO DI ASTI","latitudine":44.8996584,"longitudine":8.2022573},{"denominazione":"Biblioteca della Direzione didattica di Canelli","latitudine":44.7177644,"longitudine":8.2863912},{"denominazione":"Biblioteca generale Leone Novello","latitudine":44.66374,"longitudine":8.29391},{"denominazione":"Museo e centro documentazione Aziendale Figli di Pinin Pero S.p.A.","latitudine":44.7637891,"longitudine":8.3693537},{"denominazione":"Biblioteca civica","latitudine":44.7400042,"longitudine":8.2277412},{"denominazione":"Sala lettura Dada Rosso","latitudine":44.9425537747,"longitudine":7.9376243595},{"denominazione":"Biblioteca civica","latitudine":44.82354,"longitudine":8.1830669},{"denominazione":"BIBLIOTECA CERRUTI SILVIA DELL'ISTITUTO COMPRENSIVO DI MONCALVO","latitudine":45.051269,"longitudine":8.2610209},{"denominazione":"Biblioteca dell'Associazione culturale Davide Lajolo","latitudine":44.8095197,"longitudine":8.3178742},{"denominazione":"Biblioteca interculturale Renato Bordone del Centro provinciale Istruzione Adulti. - C.P.I.A.","latitudine":44.8970057,"longitudine":8.2118996},{"denominazione":"Biblioteca civica","latitudine":44.979862,"longitudine":8.360772},{"denominazione":"Biblioteca civica","latitudine":44.56781,"longitudine":8.32693},{"denominazione":"Biblioteca civica di Cinaglio","latitudine":44.9741404104,"longitudine":8.1004019307},{"denominazione":"Biblioteca \"Piergiuseppe Gatti\"","latitudine":44.9614676,"longitudine":8.3061662},{"denominazione":"Biblioteca civica","latitudine":44.829338,"longitudine":8.32884},{"denominazione":"Biblioteca della Banca del Tempo e dei Saperi","latitudine":44.836276,"longitudine":8.232999},{"denominazione":"Biblioteca \u201cProf. Giacinto Grassi\u201d","latitudine":44.9648215,"longitudine":8.1127492},{"denominazione":"Biblioteca Comunale Vittorio Alfieri","latitudine":44.8179547,"longitudine":8.1091198},{"denominazione":"Biblioteca comunale di Frinco","latitudine":45.0047771,"longitudine":8.1683069},{"denominazione":"Biblioteca civica Cardinal Guglielmo Massaia","latitudine":45.0514496,"longitudine":8.0496167},{"denominazione":"Biblioteca comunale Padre Angelo Caruso O.S.A.","latitudine":40.9976064,"longitudine":14.7812654},{"denominazione":"Biblioteca comunale","latitudine":40.9379578,"longitudine":15.3262425},{"denominazione":"Biblioteca comunale Pasquale Stanislao Mancini","latitudine":41.1544588,"longitudine":15.0912121},{"denominazione":"Biblioteca diocesana","latitudine":41.1528421,"longitudine":15.0884703},{"denominazione":"Biblioteca comunale Leopoldo Cassese di Atripalda","latitudine":40.9217809,"longitudine":14.8338982},{"denominazione":"Biblioteca comunale Ignazio D'Anna","latitudine":40.957985,"longitudine":14.5994488},{"denominazione":"Biblioteca S. Alfonso de' Liguori dei Padri Redentoristi","latitudine":40.8958401,"longitudine":14.7539857},{"denominazione":"Biblioteca dell'Archivio di Stato di Avellino","latitudine":40.914567,"longitudine":14.7878862},{"denominazione":"Biblioteca Comunale Salvatore Pescatori","latitudine":40.8305253,"longitudine":15.0696562},{"denominazione":"Biblioteca comunale","latitudine":40.9516927,"longitudine":14.6190866},{"denominazione":"Biblioteca comunale Crescenzo Miletti","latitudine":41.1026563,"longitudine":15.004252},{"denominazione":"Biblioteca comunale","latitudine":40.9008925,"longitudine":15.4380075},{"denominazione":"Biblioteca comunale","latitudine":41.0278299,"longitudine":15.2100963},{"denominazione":"Biblioteca del Centro di lettura","latitudine":40.8702738,"longitudine":15.0272316},{"denominazione":"Biblioteca comunale Pasquale Stanislao Mancini","latitudine":41.0464235,"longitudine":15.1851481},{"denominazione":"Biblioteca comunale Mons. Salvatore Favati","latitudine":40.9184545,"longitudine":14.8350801},{"denominazione":"Biblioteca comunale","latitudine":40.8640526,"longitudine":14.7790865},{"denominazione":"Biblioteca comunale Francesco Antonio Cappone","latitudine":40.8576103,"longitudine":15.3344427},{"denominazione":"Biblioteca comunale Nicola Boscero","latitudine":41.0760492,"longitudine":15.1519998},{"denominazione":"Biblioteca comunale","latitudine":41.0157032,"longitudine":15.0157905},{"denominazione":"Biblioteca comunale","latitudine":40.8600594,"longitudine":14.7434645},{"denominazione":"Biblioteca Carlo Gesualdo","latitudine":41.0055133,"longitudine":15.0757705},{"denominazione":"Biblioteca comunale Padre Leonardo De Martino","latitudine":41.253237,"longitudine":15.169393},{"denominazione":"Biblioteca comunale Antonio Di Pietro","latitudine":40.972851,"longitudine":14.7869183},{"denominazione":"Biblioteca comunale Giandonato Giordano Sindaco di Guardia Lombardi 1992-2001","latitudine":40.9537822,"longitudine":15.2075904},{"denominazione":"Biblioteca comunale","latitudine":41.0538463,"longitudine":15.4302383},{"denominazione":"Biblioteca comunale Gaetano Soriano","latitudine":40.8933125,"longitudine":15.1883593},{"denominazione":"Biblioteca Pubblica Statale annessa al Monumento nazionale di Montevergine","latitudine":40.9199555,"longitudine":14.7487263},{"denominazione":"Biblioteca conventuale Maria Immacolata","latitudine":41.1975926,"longitudine":15.0386186},{"denominazione":"Biblioteca comunale","latitudine":41.1952691,"longitudine":15.0336264},{"denominazione":"Biblioteca comunale Michelangelo Petruzziello","latitudine":40.9642069,"longitudine":14.8844577},{"denominazione":"Biblioteca comunale","latitudine":40.8924975,"longitudine":14.7118818},{"denominazione":"Centro di lettura Arcella","latitudine":40.9719844852,"longitudine":14.8364848439},{"denominazione":"Biblioteca comunale Montefredane","latitudine":40.9627597,"longitudine":14.8120622},{"denominazione":"Biblioteca comunale","latitudine":40.9198402,"longitudine":14.9968729},{"denominazione":"Biblioteca comunale Giuseppe Leonida Capobianco","latitudine":41.0001828,"longitudine":15.5328286},{"denominazione":"Biblioteca comunale","latitudine":40.9423618,"longitudine":14.640373},{"denominazione":"Biblioteca civica","latitudine":40.887871,"longitudine":15.0847178},{"denominazione":"Biblioteca comunale","latitudine":40.9303812,"longitudine":14.8801668},{"denominazione":"Biblioteca comunale Felice De Leo","latitudine":40.9729469,"longitudine":15.0339651},{"denominazione":"Biblioteca comunale Clara Stefania Petrillo","latitudine":40.9862373,"longitudine":14.8531909},{"denominazione":"Biblioteca comunale Alessandro Manzoni","latitudine":40.9184293,"longitudine":14.8921543},{"denominazione":"Biblioteca comunale","latitudine":40.92825,"longitudine":14.872855},{"denominazione":"Biblioteca comunale Francesco Pallante","latitudine":40.843151,"longitudine":15.370565},{"denominazione":"Biblioteca comunale padre Alfredo Marranzini","latitudine":40.8708094,"longitudine":14.8756915},{"denominazione":"Biblioteca comunale","latitudine":41.0211224,"longitudine":14.8461364},{"denominazione":"Biblioteca comunale","latitudine":41.2288634,"longitudine":15.1794463},{"denominazione":"Biblioteca del Convento di S. Francesco","latitudine":40.8589027,"longitudine":14.8726023},{"denominazione":"Biblioteca comunale Alda Merini","latitudine":40.9488149,"longitudine":14.6329398},{"denominazione":"Biblioteca comunale Renato Serra - Centro Studi di storia locale","latitudine":40.8294919,"longitudine":14.8446597},{"denominazione":"Biblioteca comunale Sperone","latitudine":40.9523227,"longitudine":14.6027374},{"denominazione":"Biblioteca comunale","latitudine":40.949555,"longitudine":14.7444977},{"denominazione":"Biblioteca S. Giovanni del Palco","latitudine":40.8855597,"longitudine":14.6307867},{"denominazione":"Biblioteca comunale Lorenzo De Minico","latitudine":41.0219204,"longitudine":14.9109309},{"denominazione":"Biblioteca comunale monsignor Carlo Petrilli","latitudine":41.0487648,"longitudine":15.2333282},{"denominazione":"Biblioteca comunale popolare S. Guerriero","latitudine":41.0117532,"longitudine":14.8246313},{"denominazione":"Biblioteca comunale","latitudine":41.0368806,"longitudine":15.2514054},{"denominazione":"Biblioteca comunale Mons. Mario Colantuoni","latitudine":41.0458863,"longitudine":14.9103822},{"denominazione":"Biblioteca comunale","latitudine":41.1171881,"longitudine":15.1580729},{"denominazione":"Biblioteca comunale. Centro di lettura permanente","latitudine":41.1239417,"longitudine":15.2040857},{"denominazione":"Biblioteca del centro di ricerca Guido Dorso per lo studio del pensiero Meridionalistico","latitudine":40.9128397,"longitudine":14.7871004},{"denominazione":"Biblioteca Diocesana di Montevergine","latitudine":40.9357016,"longitudine":14.7283161},{"denominazione":"Biblioteca Maria Santissima di Montevergine - Suore benedettine","latitudine":40.9219631,"longitudine":14.7170954},{"denominazione":"Biblioteca dei Padri Cappuccini di S. Egidio","latitudine":41.0333088,"longitudine":14.8759348},{"denominazione":"Biblioteca San Francesco","latitudine":40.8491429,"longitudine":15.0484522},{"denominazione":"Biblioteca comunale Antonio Marino","latitudine":41.0247388,"longitudine":14.662922},{"denominazione":"Biblioteca Comunale Mariano Lepore","latitudine":40.882919,"longitudine":14.9193536},{"denominazione":"Biblioteca Guerriera Guerrieri","latitudine":40.972589,"longitudine":15.0314312},{"denominazione":"Biblioteca Comunale don Gaetano Cipriano","latitudine":40.95214,"longitudine":15.165325},{"denominazione":"Biblioteca comunale","latitudine":41.0378976,"longitudine":14.8553376},{"denominazione":"Biblioteca comunale","latitudine":40.8133474,"longitudine":15.2272806},{"denominazione":"Biblioteca del Centro rete del Sistema bibliotecario provinciale","latitudine":40.9123007,"longitudine":14.7849103},{"denominazione":"Biblioteca comunale Alfonso Menna","latitudine":40.879779,"longitudine":14.5867566},{"denominazione":"Biblioteca del Conservatorio di Musica Domenico Cimarosa","latitudine":40.9172996,"longitudine":14.7961705},{"denominazione":"Biblioteca civica Can. Marciano De Leo","latitudine":41.0195247,"longitudine":15.1114698},{"denominazione":"Biblioteca comunale","latitudine":41.0590113,"longitudine":15.1992736},{"denominazione":"Biblioteca comunale Dante Alighieri","latitudine":41.1006523,"longitudine":15.0520313},{"denominazione":"Biblioteca comunale","latitudine":41.0923257,"longitudine":15.298921},{"denominazione":"Biblioteca del Centro di cultura permanente","latitudine":41.0245497,"longitudine":14.7270457},{"denominazione":"Biblioteca comunale","latitudine":41.0630462,"longitudine":15.2491074},{"denominazione":"Biblioteca comunale Nunzia Festa","latitudine":40.9104133,"longitudine":14.7947993},{"denominazione":"Biblioteca comunale","latitudine":40.8863065,"longitudine":14.8202449},{"denominazione":"Biblioteca comunale Giovanna Caracciolo","latitudine":40.9397228,"longitudine":15.1161202},{"denominazione":"Biblioteca comunale Ludovico Vuolo","latitudine":40.97018,"longitudine":15.08782},{"denominazione":"Biblioteca Alfredo De Marsico","latitudine":40.9156448,"longitudine":14.787436},{"denominazione":"Biblioteca comunale","latitudine":41.23407,"longitudine":15.00723},{"denominazione":"Biblioteca del Convento dei Frati minori","latitudine":41.2346481,"longitudine":15.0057435},{"denominazione":"Biblioteca comunale","latitudine":40.907269,"longitudine":14.7559836},{"denominazione":"Biblioteca Parrocchiale San Benedetto della Parrocchia Santa Maria Assunta","latitudine":40.9161233,"longitudine":14.9970286},{"denominazione":"Biblioteca comunale padre Angelo Romano","latitudine":40.8837198,"longitudine":14.6344048},{"denominazione":"Biblioteca comunale","latitudine":41.0073559,"longitudine":14.9580368},{"denominazione":"Biblioteca diocesana mons. Pasquale Venezia","latitudine":40.91652,"longitudine":14.79256},{"denominazione":"Biblioteca comunale Giuseppe Bonifazi","latitudine":40.8526675,"longitudine":15.2575688},{"denominazione":"Biblioteca generalizia Filippo Tipaldi","latitudine":41.1504125,"longitudine":15.085207},{"denominazione":"Biblioteca diocesana","latitudine":40.9265040851,"longitudine":15.1765456058},{"denominazione":"Biblioteca F. Tulino\/G. Fiordellisi","latitudine":40.9495715,"longitudine":14.6170294},{"denominazione":"Biblioteca \"Noi con Loro\" ODV","latitudine":40.9197921,"longitudine":14.7763985},{"denominazione":"Biblioteca Mario Sarro della Soprintendenza Archeologia, Belle Arti e Paesaggio di Salerno e Avellino, sede di Avellino","latitudine":40.9142957,"longitudine":14.7873764},{"denominazione":"Biblioteca Flora Criscuoli dell'Istituto comprensivo Vittorio Criscuoli","latitudine":40.9195086,"longitudine":15.1843801},{"denominazione":"Biblioteca comunale","latitudine":40.9014207,"longitudine":14.5867824},{"denominazione":"Biblioteca Dante Troisi","latitudine":40.9206319,"longitudine":14.7918685},{"denominazione":"Biblioteca dell\u2019Istituto agrario Francesco De Sanctis e dell\u2019Istituto tecnico Oscar D\u2019Agostino","latitudine":40.9211652,"longitudine":14.7950396},{"denominazione":"Biblioteca comunale Goffredo Raimo","latitudine":40.9855403,"longitudine":14.8358916},{"denominazione":"Biblioteca comunale","latitudine":41.0114795,"longitudine":14.9066328},{"denominazione":"Biblioteca Galiani-Ricciardelli","latitudine":40.8176301,"longitudine":14.7997717},{"denominazione":"Biblioteca comunale Angelo Troisi","latitudine":41.0310405,"longitudine":14.7965334},{"denominazione":"Biblioteca comunale","latitudine":40.8940053,"longitudine":14.8671029},{"denominazione":"Biblioteca Comunale","latitudine":40.9332053786,"longitudine":14.9167993725},{"denominazione":"Biblioteca del Museo etnografico Beniamino Tartaglia","latitudine":40.9883938,"longitudine":15.4771235},{"denominazione":"Biblioteca Centro studi Calitrani","latitudine":40.9865669,"longitudine":15.4685029},{"denominazione":"Biblioteca Mario Pensa del Liceo statale Paolo Emilio Imbriani","latitudine":40.9187665,"longitudine":14.7783443},{"denominazione":"Biblioteca comunale Francesco de' Sanctis","latitudine":40.9285857,"longitudine":15.2440377},{"denominazione":"Biblioteche dell'ITGC Giordano Bruno e del liceo Guido Dorso","latitudine":41.1525982223,"longitudine":15.0962823878},{"denominazione":"Biblioteca dell'Istituto comprensivo statale Cardito Pasquale Stanislao Mancini","latitudine":41.1370059,"longitudine":15.0819063},{"denominazione":"Biblioteca dell'Istituto di Cultura Germanica A.C.I.T.","latitudine":40.9154384,"longitudine":14.7964882},{"denominazione":"Biblioteca scolastica Gregorio Ronca","latitudine":40.8358656,"longitudine":14.836418},{"denominazione":"Biblioteca Ateneum AGISport","latitudine":41.1957049,"longitudine":15.0308085},{"denominazione":"Biblioteca Pro Loco libri","latitudine":41.0233241,"longitudine":14.6630889},{"denominazione":"Biblioteca comunale","latitudine":41.0337441026,"longitudine":14.8142183201},{"denominazione":"Biblioteca \"Dionisio Pascucci\" del Liceo classico P. Colletta - Sezione distaccata","latitudine":41.0357884,"longitudine":14.8945424},{"denominazione":"Biblioteca Bibliocaff\u00e8 dell\u2019IPSEOA Manlio Rossi-Doria","latitudine":40.9205872508,"longitudine":14.775346078},{"denominazione":"Biblioteca Stravinsky","latitudine":40.9256711,"longitudine":14.8400124},{"denominazione":"Biblioteca Libreria Sociale Proloco Castelfranci","latitudine":40.9323994,"longitudine":15.0416075},{"denominazione":"Biblioteca Nuova Dimensione","latitudine":40.8663024,"longitudine":14.7784533},{"denominazione":"Biblioteca Giuliano d\u2019Eclano","latitudine":41.0416958,"longitudine":14.9935535},{"denominazione":"Biblioteca Pro Loco Alta Irpinia","latitudine":40.9277972,"longitudine":15.1777683},{"denominazione":"Biblioteca dell\u2019Istituto Comprensivo \"G. Tentindo\"","latitudine":40.932103,"longitudine":14.9172124},{"denominazione":"Biblioteca Pro Loco Roccabascerana","latitudine":41.032717,"longitudine":14.714812},{"denominazione":"Biblioteca Fondazione Biogem","latitudine":41.2017985,"longitudine":15.1378894},{"denominazione":"Biblioteca comunale G. Maselli Campagna","latitudine":40.8969135,"longitudine":16.8448648},{"denominazione":"Bibliocenter Ex Conceria","latitudine":40.7853334,"longitudine":17.2312928},{"denominazione":"Archivio Biblioteca Museo Civico - A.B.M.C.","latitudine":40.8242208,"longitudine":16.5530212},{"denominazione":"Biblioteca comunale Giuseppe Ceci","latitudine":41.2239479,"longitudine":16.2950892},{"denominazione":"Biblioteca dell'Archivio di Stato di Bari","latitudine":41.1286935784,"longitudine":16.8468980019},{"denominazione":"Biblioteca dell'Accademia pugliese delle scienze","latitudine":41.1116516,"longitudine":16.8807871},{"denominazione":"Biblioteca civica del museo storico","latitudine":41.1273052,"longitudine":16.8693248},{"denominazione":"Biblioteca del Dipartimento di scienze statistiche dell'Universit\u00e0 degli studi di Bari","latitudine":41.0942658,"longitudine":16.854582},{"denominazione":"Biblioteca della Provincia delle Puglie dei Frati minori cappuccini","latitudine":41.1012047,"longitudine":16.8485223},{"denominazione":"Biblioteca Nazionale Sagarriga Visconti Volpi","latitudine":41.1292456,"longitudine":16.846291},{"denominazione":"Biblioteca della Fondazione Gaetano Ricchetti","latitudine":41.1194912,"longitudine":16.8698272},{"denominazione":"Biblioteca della Soprintendenza archivistica e bibliografica della Puglia","latitudine":41.1273298,"longitudine":16.8695520736},{"denominazione":"Biblioteca della Societ\u00e0 di storia patria per la Puglia","latitudine":41.119963,"longitudine":16.8689547},{"denominazione":"Biblioteca della Camera di commercio, industria, artigianato e agricoltura - CCIAA","latitudine":41.0391269,"longitudine":16.8475847},{"denominazione":"Consiglio per la Ricerca In Agricoltura e l'Analisi dell'Economia Agraria Centro di Ricerca Agricoltura e Ambiente - Sede di Bari (Crea-Aa Sede di Bari)","latitudine":41.1104386,"longitudine":16.8780998},{"denominazione":"Biblioteca di quartiere \"Don Bosco\"","latitudine":41.1179976,"longitudine":16.8552707},{"denominazione":"Biblioteca diocesana Pio IX - sezione di Barletta","latitudine":41.3206415,"longitudine":16.2826676},{"denominazione":"Biblioteca comunale Sabino Loffredo","latitudine":41.3204187,"longitudine":16.2882838},{"denominazione":"Biblioteca diocesana San Tommaso d'Aquino - sezione di Bisceglie","latitudine":41.2367095,"longitudine":16.5096829},{"denominazione":"Biblioteca comunale mons. Pompeo Sarnelli","latitudine":41.2410996,"longitudine":16.5029564},{"denominazione":"Biblioteca comunale 'Prof.ssa Rosa Antonacci De Marco'","latitudine":41.0396339,"longitudine":16.7492383},{"denominazione":"Biblioteca comunale Eustachio Rogadeo","latitudine":41.1058416,"longitudine":16.6903642},{"denominazione":"Biblioteca diocesana sezione di Bitonto","latitudine":41.1059703,"longitudine":16.6916855},{"denominazione":"Biblioteca comunale","latitudine":41.0415681,"longitudine":16.825816},{"denominazione":"Biblioteca comunale Armando Perotti","latitudine":40.8898187,"longitudine":16.7707063},{"denominazione":"Biblioteca Madonna della Vetrana","latitudine":40.8835137,"longitudine":17.1701696},{"denominazione":"Biblioteca del Monastero delle Benedettine Celestine dell'Immacolata","latitudine":40.8604918,"longitudine":17.180304},{"denominazione":"Biblioteca civica \"Giacomo Tauro\"","latitudine":40.88367,"longitudine":17.1677306},{"denominazione":"Biblioteca Diocesana Domenico Morea","latitudine":40.9696092,"longitudine":17.1151806},{"denominazione":"Biblioteca civica Maria Marangelli","latitudine":40.968866,"longitudine":17.1146829},{"denominazione":"Biblioteca comunale Matteo Renato Imbriani","latitudine":41.1517,"longitudine":16.41256},{"denominazione":"Biblioteca civica don Vincenzo Angelilli","latitudine":40.7992463,"longitudine":16.92265},{"denominazione":"Biblioteca comunale Beniamino d'Amato","latitudine":41.0128722,"longitudine":16.7104952},{"denominazione":"Biblioteca comunale Antonio Bruno","latitudine":40.7529434,"longitudine":17.3289972},{"denominazione":"Biblioteca comunale Luigi Barbera","latitudine":41.0904872796,"longitudine":16.0800275405},{"denominazione":"Biblioteca comunale Giuseppe De Santis","latitudine":41.0584041,"longitudine":17.0882905},{"denominazione":"Biblioteca San Tommaso d'Aquino del Pontificio Seminario Regionale Pio XI","latitudine":41.1992433,"longitudine":16.6050882},{"denominazione":"Biblioteca mariana Regina Martyrum","latitudine":41.1364133,"longitudine":16.5450099},{"denominazione":"Biblioteca comunale Giovanni Panunzio","latitudine":41.2047,"longitudine":16.59388},{"denominazione":"Biblioteca del Seminario vescovile","latitudine":41.2027767,"longitudine":16.5987187},{"denominazione":"Biblioteca civica Prospero Rendella","latitudine":40.9533789,"longitudine":17.303631},{"denominazione":"Biblioteca del Seminario vescovile di Monopoli","latitudine":40.9513349,"longitudine":17.3035812},{"denominazione":"Biblioteca Monastica Madonna della Scala","latitudine":40.7919824,"longitudine":17.0552352},{"denominazione":"Biblioteca comunale Gian Matteo Giuliani","latitudine":41.0569125,"longitudine":16.7035229},{"denominazione":"Biblioteca di comunit\u00e0 'Raffaele Chiantera'","latitudine":40.9932901,"longitudine":17.2108239},{"denominazione":"Biblioteca comunale \"F. Angelini De Miccolis\"","latitudine":40.8493826,"longitudine":17.1238628},{"denominazione":"Biblioteca comunale","latitudine":41.0120014,"longitudine":17.002859},{"denominazione":"Biblioteca comunale \"Pasquale Testini\"","latitudine":41.116309,"longitudine":16.4847849},{"denominazione":"Biblioteca comunale","latitudine":40.8830697,"longitudine":16.9470262},{"denominazione":"Biblioteca comunale Giovanni Colonna","latitudine":40.7967502,"longitudine":16.7580699},{"denominazione":"Biblioteca comunale Gennaro Trisorio Liuzzi","latitudine":40.9693374,"longitudine":16.0897421},{"denominazione":"Biblioteca comunale Luigi Marinelli Giovene","latitudine":41.1319739,"longitudine":16.5421908},{"denominazione":"Biblioteca comunale \"Giovanni Bovio\"","latitudine":41.2763904,"longitudine":16.4193774},{"denominazione":"Biblioteca dell' Ordine degli Avvocati di Trani","latitudine":41.2819098,"longitudine":16.4175206},{"denominazione":"Biblioteca diocesana centrale Arcivescovo Giovanni","latitudine":41.2811966,"longitudine":16.4178135},{"denominazione":"Casa della Cultura Rocco Dicillo","latitudine":41.0669381,"longitudine":16.9185955},{"denominazione":"Biblioteca diocesana di Altamura - Gravina - Acquaviva delle Fonti","latitudine":40.8276664,"longitudine":16.5529417},{"denominazione":"Biblioteca Metropolitana De Gemmis","latitudine":41.1277348,"longitudine":16.8698499},{"denominazione":"Biblioteca del Centro ricerche storia e arte bitontina Donato Antonio De Capua","latitudine":41.1081808,"longitudine":16.688015},{"denominazione":"Biblioteca comunale Carlo Perrone","latitudine":41.0816144,"longitudine":16.779651},{"denominazione":"Biblioteca Capitolare Finia","latitudine":40.8173471,"longitudine":16.4150823},{"denominazione":"Biblioteca della Fondazione Ettore Pomarici Santomasi","latitudine":40.8184826,"longitudine":16.4150165},{"denominazione":"Biblioteca comunale Giuseppe Di Vittorio","latitudine":41.0342446,"longitudine":16.9884764},{"denominazione":"Biblioteca comunale Giovanni Bruno","latitudine":40.91613,"longitudine":17.02087},{"denominazione":"Biblioteca del Seminario giuridico della Facolt\u00e0 di giurisprudenza dell'Universit\u00e0 degli studi di Bari","latitudine":41.1205798,"longitudine":16.8684572},{"denominazione":"Biblioteca Centrale di Economia dell'Universit\u00e0 degli studi di Bari","latitudine":41.0948847,"longitudine":16.8546513},{"denominazione":"Biblioteca del Dipartimento di Economia, Management e Diritto dell\u2019Impresa. Area giuridica dell'Universit\u00e0 degli studi di Bari \"Aldo Moro\"","latitudine":41.0947877,"longitudine":16.8519905},{"denominazione":"Biblioteca del Dipartimento di Economia, Management e Diritto dell\u2019Impresa. Area aziendale dell'Universit\u00e0 degli studi di Bari \"Aldo Moro\"","latitudine":41.0947877,"longitudine":16.8519905},{"denominazione":"Biblioteca centrale delle facolt\u00e0 di Lettere e filosofia e di Scienze della formazione A. Corsano dell'Universit\u00e0 degli studi di Bari","latitudine":41.12105,"longitudine":16.870615},{"denominazione":"Biblioteca di Lingue e letterature straniere dell'Universit\u00e0 degli studi di Bari","latitudine":41.1202546,"longitudine":16.8634292},{"denominazione":"Biblioteca centrale della Facolt\u00e0 di medicina e chirurgia Claudio Malaguzzi Valeri della Universit\u00e0 degli studi di Bari","latitudine":41.1120366,"longitudine":16.862822},{"denominazione":"Biblioteca del Dipartimento di anatomia patologica e di genetica. Sezione di anatomia patologica dell'Universit\u00e0 degli studi di Bari","latitudine":41.112605,"longitudine":16.863381},{"denominazione":"Biblioteca del Dipartimento di anatomia umana e istologia dell'Universit\u00e0 degli studi di Bari","latitudine":41.112605,"longitudine":16.863381},{"denominazione":"Biblioteca del Dipartimento di scienze neurologiche e psichiatriche. Sezione di scienze neurologiche dell'Universit\u00e0 degli studi di Bari","latitudine":41.112605,"longitudine":16.863381},{"denominazione":"Biblioteca del Dipartimento di clinica medica, immunologia e malattie infettive. Sezione di clinica dermatologica dell'Universit\u00e0 degli studi di Bari","latitudine":41.112605,"longitudine":16.863381},{"denominazione":"Biblioteca di Clinica ostetrica e ginecologica della Facolt\u00e0 di medicina e chirurgia dell'Universit\u00e0 degli studi di Bari","latitudine":41.1120366,"longitudine":16.862822},