Archive_ID,Archive_Name,Archive_City,Archive_Region,Archive_Latitude,Archive_Longitude,Ticket_Cost
http://dati.beniculturali.it/mibact/luoghi/resource/CulturalInstituteOrSite/125234,Archivio di Stato di Trento,http://dati.beniculturali.it/mibact/luoghi/resource/City/Trento,http://dati.beniculturali.it/mibact/luoghi/resource/Region/Trentino-Alto_Adige,46.08832,11.109711,Free Entry
http://dati.beniculturali.it/mibact/luoghi/resource/CulturalInstituteOrSite/116648,"Archivio di Stato di Bologna, Sezione di Imola",http://dati.beniculturali.it/mibact/luoghi/resource/City/Imola,http://dati.beniculturali.it/mibact/luoghi/resource/Region/Emilia-Romagna,44.35559,11.711252,Free Entry
http://dati.beniculturali.it/mibact/luoghi/resource/CulturalInstituteOrSite/133053,Archivio centrale dello Stato,http://dati.beniculturali.it/mibact/luoghi/resource/City/Roma,http://dati.beniculturali.it/mibact/luoghi/resource/Region/Lazio,41.82904,12.47538,Free Entry
http://dati.beniculturali.it/mibact/luoghi/resource/CulturalInstituteOrSite/20710,Archivio di Stato di Ancona. Sede distaccata,http://dati.beniculturali.it/mibact/luoghi/resource/City/Ancona,http://dati.beniculturali.it/mibact/luoghi/resource/Region/Marche,43.595825,13.503158,Free Entry
http://dati.beniculturali.it/mibact/luoghi/resource/CulturalInstituteOrSite/116654,Archivio di Stato di Catanzaro,http://dati.beniculturali.it/mibact/luoghi/resource/City/Catanzaro,http://dati.beniculturali.it/mibact/luoghi/resource/Region/Calabria,38.90427,16.59281,Free Entry
http://dati.beniculturali.it/mibact/luoghi/resource/CulturalInstituteOrSite/120709,Archivio di Stato di Siena,http://dati.beniculturali.it/mibact/luoghi/resource/City/Siena,http://dati.beniculturali.it/mibact/luoghi/resource/Region/Toscana,43.318954,11.332974,Free Entry
http://dati.beniculturali.it/mibact/luoghi/resource/CulturalInstituteOrSite/20682,Archivio di Stato di Roma. Sede distaccata,http://dati.beniculturali.it/mibact/luoghi/resource/City/Roma,http://dati.beniculturali.it/mibact/luoghi/resource/Region/Lazio,41.902256,12.543108,Free Entry
http://dati.beniculturali.it/mibact/luoghi/resource/CulturalInstituteOrSite/157959,Archivio di Stato di Messina,http://dati.beniculturali.it/mibact/luoghi/resource/City/Messina,http://dati.beniculturali.it/mibact/luoghi/resource/Region/Sicilia,41.86956,12.568359,Free Entry
http://dati.beniculturali.it/mibact/luoghi/resource/CulturalInstituteOrSite/135674,Archivio di Stato di Perugia. Sezione di Spoleto,http://dati.beniculturali.it/mibact/luoghi/resource/City/Spoleto,http://dati.beniculturali.it/mibact/luoghi/resource/Region/Umbria,42.73376,12.730961,Free Entry
http://dati.beniculturali.it/mibact/luoghi/resource/CulturalInstituteOrSite/110857,Archivio di Stato di Vercelli,http://dati.beniculturali.it/mibact/luoghi/resource/City/Vercelli,http://dati.beniculturali.it/mibact/luoghi/resource/Region/Piemonte,45.32302,8.421451,Free Entry
http://dati.beniculturali.it/mibact/luoghi/resource/CulturalInstituteOrSite/136273,Archivio di Stato dell'Aquila. Sezione di Sulmona,http://dati.beniculturali.it/mibact/luoghi/resource/City/Sulmona,http://dati.beniculturali.it/mibact/luoghi/resource/Region/Abruzzo,42.04231,13.927826,Free Entry
http://dati.beniculturali.it/mibact/luoghi/resource/CulturalInstituteOrSite/108166,Archivio di Stato di Latina,http://dati.beniculturali.it/mibact/luoghi/resource/City/Latina,http://dati.beniculturali.it/mibact/luoghi/resource/Region/Lazio,41.458515,12.929457,Free Entry
http://dati.beniculturali.it/mibact/luoghi/resource/CulturalInstituteOrSite/113120,Archivio di Stato di Trieste,http://dati.beniculturali.it/mibact/luoghi/resource/City/Trieste,http://dati.beniculturali.it/mibact/luoghi/resource/Region/Friuli-Venezia_Giulia,45.64025,13.796879,Free Entry
http://dati.beniculturali.it/mibact/luoghi/resource/CulturalInstituteOrSite/20703,Archivio di Stato di Brescia,http://dati.beniculturali.it/mibact/luoghi/resource/City/Brescia,http://dati.beniculturali.it/mibact/luoghi/resource/Region/Lombardia,45.547943,10.22724,Free Entry
http://dati.beniculturali.it/mibact/luoghi/resource/CulturalInstituteOrSite/20771,Archivio di Stato di Teramo,http://dati.beniculturali.it/mibact/luoghi/resource/City/Teramo,http://dati.beniculturali.it/mibact/luoghi/resource/Region/Abruzzo,42.66049,13.702663,Free Entry
http://dati.beniculturali.it/mibact/luoghi/resource/CulturalInstituteOrSite/20702,Archivio di Stato di Brindisi,http://dati.beniculturali.it/mibact/luoghi/resource/City/Brindisi,http://dati.beniculturali.it/mibact/luoghi/resource/Region/Puglia,40.64142,17.943987,Free Entry
http://dati.beniculturali.it/mibact/luoghi/resource/CulturalInstituteOrSite/116642,Archivio di Stato di Bergamo,http://dati.beniculturali.it/mibact/luoghi/resource/City/Bergamo,http://dati.beniculturali.it/mibact/luoghi/resource/Region/Lombardia,45.702747,9.687128,Free Entry
http://dati.beniculturali.it/mibact/luoghi/resource/CulturalInstituteOrSite/123670,Archivio di Stato di Milano,http://dati.beniculturali.it/mibact/luoghi/resource/City/Milano,http://dati.beniculturali.it/mibact/luoghi/resource/Region/Lombardia,45.47033,9.19893,Free Entry
http://dati.beniculturali.it/mibact/luoghi/resource/CulturalInstituteOrSite/116652,Archivio di Stato di Catania,http://dati.beniculturali.it/mibact/luoghi/resource/City/Catania,http://dati.beniculturali.it/mibact/luoghi/resource/Region/Sicilia,37.503033,15.089244,Free Entry
http://dati.beniculturali.it/mibact/luoghi/resource/CulturalInstituteOrSite/120075,Archivio di Stato di Forlì-Cesena,http://dati.beniculturali.it/mibact/luoghi/resource/City/Forli,http://dati.beniculturali.it/mibact/luoghi/resource/Region/Emilia-Romagna,44.22725,12.04019,Free Entry
http://dati.beniculturali.it/mibact/luoghi/resource/CulturalInstituteOrSite/20782,Archivio di Stato di Pavia,http://dati.beniculturali.it/mibact/luoghi/resource/City/Pavia,http://dati.beniculturali.it/mibact/luoghi/resource/Region/Lombardia,45.183517,9.153047,Free Entry
http://dati.beniculturali.it/mibact/luoghi/resource/CulturalInstituteOrSite/118926,Archivio di Stato di Udine,http://dati.beniculturali.it/mibact/luoghi/resource/City/Udine,http://dati.beniculturali.it/mibact/luoghi/resource/Region/Friuli-Venezia_Giulia,46.06828,13.223159,Free Entry
http://dati.beniculturali.it/mibact/luoghi/resource/CulturalInstituteOrSite/116635,Archivio di Stato di Ascoli Piceno,http://dati.beniculturali.it/mibact/luoghi/resource/City/Ascoli_Piceno,http://dati.beniculturali.it/mibact/luoghi/resource/Region/Marche,42.85747,13.566855,Free Entry
http://dati.beniculturali.it/mibact/luoghi/resource/CulturalInstituteOrSite/110858,Archivio di Stato di Vercelli. Sezione di Varallo,http://dati.beniculturali.it/mibact/luoghi/resource/City/Varallo,http://dati.beniculturali.it/mibact/luoghi/resource/Region/Piemonte,45.815533,8.248424,Free Entry
http://dati.beniculturali.it/mibact/luoghi/resource/CulturalInstituteOrSite/117164,Archivio di Stato di Modena,http://dati.beniculturali.it/mibact/luoghi/resource/City/Modena,http://dati.beniculturali.it/mibact/luoghi/resource/Region/Emilia-Romagna,44.65001,10.927906,Free Entry
http://dati.beniculturali.it/mibact/luoghi/resource/CulturalInstituteOrSite/20687,Archivio di Stato di Pesaro-Urbino. Sezione di Fano,http://dati.beniculturali.it/mibact/luoghi/resource/City/Fano,http://dati.beniculturali.it/mibact/luoghi/resource/Region/Marche,43.844112,13.020979,Free Entry
http://dati.beniculturali.it/mibact/luoghi/resource/CulturalInstituteOrSite/123557,Archivio di Stato di Treviso,http://dati.beniculturali.it/mibact/luoghi/resource/City/Treviso,http://dati.beniculturali.it/mibact/luoghi/resource/Region/Veneto,45.66231,12.247523,Free Entry
http://dati.beniculturali.it/mibact/luoghi/resource/CulturalInstituteOrSite/135675,Archivio di Stato di Perugia. Sezione di Foligno,http://dati.beniculturali.it/mibact/luoghi/resource/City/Foligno,http://dati.beniculturali.it/mibact/luoghi/resource/Region/Umbria,42.956306,12.701936,Free Entry
http://dati.beniculturali.it/mibact/luoghi/resource/CulturalInstituteOrSite/116637,Archivio di Stato di Bari,http://dati.beniculturali.it/mibact/luoghi/resource/City/Bari,http://dati.beniculturali.it/mibact/luoghi/resource/Region/Puglia,41.12879,16.846931,Free Entry
http://dati.beniculturali.it/mibact/luoghi/resource/CulturalInstituteOrSite/121406,Archivio di Stato di Foggia,http://dati.beniculturali.it/mibact/luoghi/resource/City/Foggia,http://dati.beniculturali.it/mibact/luoghi/resource/Region/Puglia,41.462063,15.545069,Free Entry
http://dati.beniculturali.it/mibact/luoghi/resource/CulturalInstituteOrSite/108210,Archivio di Stato di Salerno,http://dati.beniculturali.it/mibact/luoghi/resource/City/Salerno,http://dati.beniculturali.it/mibact/luoghi/resource/Region/Campania,40.68073,14.75826,Free Entry
http://dati.beniculturali.it/mibact/luoghi/resource/CulturalInstituteOrSite/20683,Archivio di Stato di Roma,http://dati.beniculturali.it/mibact/luoghi/resource/City/Roma,http://dati.beniculturali.it/mibact/luoghi/resource/Region/Lazio,41.89824,12.473882,Free Entry
http://dati.beniculturali.it/mibact/luoghi/resource/CulturalInstituteOrSite/126361,Archivio di Stato di Fermo,http://dati.beniculturali.it/mibact/luoghi/resource/City/Fermo,http://dati.beniculturali.it/mibact/luoghi/resource/Region/Marche,43.16053,13.719018,Free Entry
http://dati.beniculturali.it/mibact/luoghi/resource/CulturalInstituteOrSite/116632,Archivio di Stato di Ragusa,http://dati.beniculturali.it/mibact/luoghi/resource/City/Ragusa,http://dati.beniculturali.it/mibact/luoghi/resource/Region/Sicilia,36.922356,14.72605,Free Entry
http://dati.beniculturali.it/mibact/luoghi/resource/CulturalInstituteOrSite/20709,Archivio di Stato di Ancona. Sede distaccata,http://dati.beniculturali.it/mibact/luoghi/resource/City/Ancona,http://dati.beniculturali.it/mibact/luoghi/resource/Region/Marche,43.59782,13.504486,Free Entry
http://dati.beniculturali.it/mibact/luoghi/resource/CulturalInstituteOrSite/20001,Archivio di Stato di Nuoro,http://dati.beniculturali.it/mibact/luoghi/resource/City/Nuoro,http://dati.beniculturali.it/mibact/luoghi/resource/Region/Sardegna,40.31839,9.335217,Free Entry
http://dati.beniculturali.it/mibact/luoghi/resource/CulturalInstituteOrSite/108514,Archivio di Stato di Avellino,http://dati.beniculturali.it/mibact/luoghi/resource/City/Avellino,http://dati.beniculturali.it/mibact/luoghi/resource/Region/Campania,40.914284,14.787931,Free Entry
http://dati.beniculturali.it/mibact/luoghi/resource/CulturalInstituteOrSite/150069,Archivio di Stato di Sassari,http://dati.beniculturali.it/mibact/luoghi/resource/City/Sassari,http://dati.beniculturali.it/mibact/luoghi/resource/Region/Sardegna,40.726524,8.526445,Free Entry
http://dati.beniculturali.it/mibact/luoghi/resource/CulturalInstituteOrSite/120161,Archivio di Stato di Frosinone,http://dati.beniculturali.it/mibact/luoghi/resource/City/Frosinone,http://dati.beniculturali.it/mibact/luoghi/resource/Region/Lazio,41.64492,13.346511,Free Entry
http://dati.beniculturali.it/mibact/luoghi/resource/CulturalInstituteOrSite/20701,Archivio di stato di Cagliari,http://dati.beniculturali.it/mibact/luoghi/resource/City/Cagliari,http://dati.beniculturali.it/mibact/luoghi/resource/Region/Sardegna,39.213512,9.119642,Free Entry
http://dati.beniculturali.it/mibact/luoghi/resource/CulturalInstituteOrSite/106566,Archivio di Stato di Novara,http://dati.beniculturali.it/mibact/luoghi/resource/City/Novara,http://dati.beniculturali.it/mibact/luoghi/resource/Region/Piemonte,45.44711,8.624424,Free Entry
http://dati.beniculturali.it/mibact/luoghi/resource/CulturalInstituteOrSite/126358,Archivio di Stato di Cuneo,http://dati.beniculturali.it/mibact/luoghi/resource/City/Cuneo,http://dati.beniculturali.it/mibact/luoghi/resource/Region/Piemonte,44.390583,7.544007,Free Entry
http://dati.beniculturali.it/mibact/luoghi/resource/CulturalInstituteOrSite/116633,Archivio di Stato di Ragusa. Sezione di Modica,http://dati.beniculturali.it/mibact/luoghi/resource/City/Modica,http://dati.beniculturali.it/mibact/luoghi/resource/Region/Sicilia,36.860718,14.758959,Free Entry
http://dati.beniculturali.it/mibact/luoghi/resource/CulturalInstituteOrSite/111772,Archivio di Stato di Ferrara,http://dati.beniculturali.it/mibact/luoghi/resource/City/Ferrara,http://dati.beniculturali.it/mibact/luoghi/resource/Region/Emilia-Romagna,44.834713,11.626828,Free Entry
http://dati.beniculturali.it/mibact/luoghi/resource/CulturalInstituteOrSite/126365,Archivio di Stato di Mantova,http://dati.beniculturali.it/mibact/luoghi/resource/City/Mantova,http://dati.beniculturali.it/mibact/luoghi/resource/Region/Lombardia,45.158237,10.796815,Free Entry
http://dati.beniculturali.it/mibact/luoghi/resource/CulturalInstituteOrSite/20697,Archivio di Stato di Grosseto,http://dati.beniculturali.it/mibact/luoghi/resource/City/Grosseto,http://dati.beniculturali.it/mibact/luoghi/resource/Region/Toscana,42.761597,11.112967,Free Entry
http://dati.beniculturali.it/mibact/luoghi/resource/CulturalInstituteOrSite/116649,Archivio di Stato di Bolzano,http://dati.beniculturali.it/mibact/luoghi/resource/City/Bolzano_Bozen,http://dati.beniculturali.it/mibact/luoghi/resource/Region/Trentino-Alto_Adige,46.502975,11.343086,Free Entry
http://dati.beniculturali.it/mibact/luoghi/resource/CulturalInstituteOrSite/20699,Archivio di Stato di Genova,http://dati.beniculturali.it/mibact/luoghi/resource/City/Genova,http://dati.beniculturali.it/mibact/luoghi/resource/Region/Liguria,44.403217,8.936816,Free Entry
http://dati.beniculturali.it/mibact/luoghi/resource/CulturalInstituteOrSite/143832,Archivio di Stato di Ravenna,http://dati.beniculturali.it/mibact/luoghi/resource/City/Ravenna,http://dati.beniculturali.it/mibact/luoghi/resource/Region/Emilia-Romagna,44.42035,12.19539,Free Entry
http://dati.beniculturali.it/mibact/luoghi/resource/CulturalInstituteOrSite/110914,Archivio di Stato di Rovigo,http://dati.beniculturali.it/mibact/luoghi/resource/City/Rovigo,http://dati.beniculturali.it/mibact/luoghi/resource/Region/Veneto,45.067497,11.791019,Free Entry
http://dati.beniculturali.it/mibact/luoghi/resource/CulturalInstituteOrSite/116636,Archivio di Stato di Asti,http://dati.beniculturali.it/mibact/luoghi/resource/City/Asti,http://dati.beniculturali.it/mibact/luoghi/resource/Region/Piemonte,44.895737,8.199068,Free Entry
http://dati.beniculturali.it/mibact/luoghi/resource/CulturalInstituteOrSite/128686,Archivio di Stato di Parma,http://dati.beniculturali.it/mibact/luoghi/resource/City/Parma,http://dati.beniculturali.it/mibact/luoghi/resource/Region/Emilia-Romagna,44.803387,10.319287,Free Entry
http://dati.beniculturali.it/mibact/luoghi/resource/CulturalInstituteOrSite/126364,Archivio di Stato di La Spezia,http://dati.beniculturali.it/mibact/luoghi/resource/City/La_Spezia,http://dati.beniculturali.it/mibact/luoghi/resource/Region/Liguria,44.114082,9.826226,Free Entry
http://dati.beniculturali.it/mibact/luoghi/resource/CulturalInstituteOrSite/126367,Archivio di Stato di Potenza,http://dati.beniculturali.it/mibact/luoghi/resource/City/Potenza,http://dati.beniculturali.it/mibact/luoghi/resource/Region/Basilicata,40.635277,15.806273,Free Entry
http://dati.beniculturali.it/mibact/luoghi/resource/CulturalInstituteOrSite/136272,Archivio di Stato dell'Aquila. Sezione di Avezzano,http://dati.beniculturali.it/mibact/luoghi/resource/City/Avezzano,http://dati.beniculturali.it/mibact/luoghi/resource/Region/Abruzzo,42.02814,13.425312,Free Entry
http://dati.beniculturali.it/mibact/luoghi/resource/CulturalInstituteOrSite/20684,Archivio di Stato di Prato,http://dati.beniculturali.it/mibact/luoghi/resource/City/Prato,http://dati.beniculturali.it/mibact/luoghi/resource/Region/Toscana,43.880455,11.095691,Free Entry
http://dati.beniculturali.it/mibact/luoghi/resource/CulturalInstituteOrSite/122173,Archivio di Stato di Siracusa,http://dati.beniculturali.it/mibact/luoghi/resource/City/Siracusa,http://dati.beniculturali.it/mibact/luoghi/resource/Region/Sicilia,37.09222,15.279879,Free Entry
http://dati.beniculturali.it/mibact/luoghi/resource/CulturalInstituteOrSite/116719,Archivio di Stato di Cremona,http://dati.beniculturali.it/mibact/luoghi/resource/City/Cremona,http://dati.beniculturali.it/mibact/luoghi/resource/Region/Lombardia,45.139275,10.022932,Free Entry
http://dati.beniculturali.it/mibact/luoghi/resource/CulturalInstituteOrSite/116659,Archivio di Stato di Como,http://dati.beniculturali.it/mibact/luoghi/resource/City/Como,http://dati.beniculturali.it/mibact/luoghi/resource/Region/Lombardia,45.80579,9.097112,Free Entry
http://dati.beniculturali.it/mibact/luoghi/resource/CulturalInstituteOrSite/20705,Archivio di Stato di Benevento,http://dati.beniculturali.it/mibact/luoghi/resource/City/Benevento,http://dati.beniculturali.it/mibact/luoghi/resource/Region/Campania,41.132366,14.777433,Free Entry
http://dati.beniculturali.it/mibact/luoghi/resource/CulturalInstituteOrSite/128159,Archivio di Stato di Macerata - Sezione di Camerino,http://dati.beniculturali.it/mibact/luoghi/resource/City/Camerino,http://dati.beniculturali.it/mibact/luoghi/resource/Region/Marche,43.13815,13.071067,Free Entry
http://dati.beniculturali.it/mibact/luoghi/resource/CulturalInstituteOrSite/120074,Archivio di Stato di Forlì-Cesena. Sezione di Cesena,http://dati.beniculturali.it/mibact/luoghi/resource/City/Cesena,http://dati.beniculturali.it/mibact/luoghi/resource/Region/Emilia-Romagna,44.139317,12.243858,Free Entry
http://dati.beniculturali.it/mibact/luoghi/resource/CulturalInstituteOrSite/158251,Archivio di Stato di Rimini,http://dati.beniculturali.it/mibact/luoghi/resource/City/Rimini,http://dati.beniculturali.it/mibact/luoghi/resource/Region/Emilia-Romagna,41.86956,12.568359,Free Entry
http://dati.beniculturali.it/mibact/luoghi/resource/CulturalInstituteOrSite/114594,Archivio di Stato di Terni,http://dati.beniculturali.it/mibact/luoghi/resource/City/Terni,http://dati.beniculturali.it/mibact/luoghi/resource/Region/Umbria,42.56264,12.645044,Free Entry
http://dati.beniculturali.it/mibact/luoghi/resource/CulturalInstituteOrSite/20694,Archivio di Stato di Isernia,http://dati.beniculturali.it/mibact/luoghi/resource/City/Isernia,http://dati.beniculturali.it/mibact/luoghi/resource/Region/Molise,41.596725,14.240231,Free Entry
http://dati.beniculturali.it/mibact/luoghi/resource/CulturalInstituteOrSite/116627,Archivio di Stato di Agrigento,http://dati.beniculturali.it/mibact/luoghi/resource/City/Agrigento,http://dati.beniculturali.it/mibact/luoghi/resource/Region/Sicilia,37.322704,13.591668,Free Entry
http://dati.beniculturali.it/mibact/luoghi/resource/CulturalInstituteOrSite/116657,Archivio di Stato di Chieti,http://dati.beniculturali.it/mibact/luoghi/resource/City/Chieti,http://dati.beniculturali.it/mibact/luoghi/resource/Region/Abruzzo,42.350945,14.184178,Free Entry
http://dati.beniculturali.it/mibact/luoghi/resource/CulturalInstituteOrSite/136281,Archivio di Stato di Reggio Calabria. Sezione di Locri,http://dati.beniculturali.it/mibact/luoghi/resource/City/Locri,http://dati.beniculturali.it/mibact/luoghi/resource/Region/Calabria,38.229637,16.257322,Free Entry
http://dati.beniculturali.it/mibact/luoghi/resource/CulturalInstituteOrSite/114711,Archivio di Stato di Imperia,http://dati.beniculturali.it/mibact/luoghi/resource/City/Imperia,http://dati.beniculturali.it/mibact/luoghi/resource/Region/Liguria,43.88186,8.019999,Free Entry
http://dati.beniculturali.it/mibact/luoghi/resource/CulturalInstituteOrSite/105130,Archivio di Stato di Reggio Calabria,http://dati.beniculturali.it/mibact/luoghi/resource/City/Reggio_di_Calabria,http://dati.beniculturali.it/mibact/luoghi/resource/Region/Calabria,38.114628,15.650204,Free Entry
http://dati.beniculturali.it/mibact/luoghi/resource/CulturalInstituteOrSite/158253,Archivio di Stato di Bologna,http://dati.beniculturali.it/mibact/luoghi/resource/City/Bologna,http://dati.beniculturali.it/mibact/luoghi/resource/Region/Emilia-Romagna,41.86956,12.568359,Free Entry
http://dati.beniculturali.it/mibact/luoghi/resource/CulturalInstituteOrSite/20706,Archivio di Stato di Belluno,http://dati.beniculturali.it/mibact/luoghi/resource/City/Belluno,http://dati.beniculturali.it/mibact/luoghi/resource/Region/Veneto,46.13688,12.219967,Free Entry
http://dati.beniculturali.it/mibact/luoghi/resource/CulturalInstituteOrSite/116716,Archivio di Stato di Cosenza,http://dati.beniculturali.it/mibact/luoghi/resource/City/Cosenza,http://dati.beniculturali.it/mibact/luoghi/resource/Region/Calabria,39.291817,16.260363,Free Entry
http://dati.beniculturali.it/mibact/luoghi/resource/CulturalInstituteOrSite/20688,Archivio di Stato di Pesaro-Urbino,http://dati.beniculturali.it/mibact/luoghi/resource/City/Pesaro,http://dati.beniculturali.it/mibact/luoghi/resource/Region/Marche,43.913143,12.907632,Free Entry
http://dati.beniculturali.it/mibact/luoghi/resource/CulturalInstituteOrSite/126369,Archivio di Stato di Venezia,http://dati.beniculturali.it/mibact/luoghi/resource/City/Venezia,http://dati.beniculturali.it/mibact/luoghi/resource/Region/Veneto,45.43846,12.326616,Free Entry
http://dati.beniculturali.it/mibact/luoghi/resource/CulturalInstituteOrSite/123698,Archivio di Stato di Rieti,http://dati.beniculturali.it/mibact/luoghi/resource/City/Rieti,http://dati.beniculturali.it/mibact/luoghi/resource/Region/Lazio,42.40484,12.85913,Free Entry
http://dati.beniculturali.it/mibact/luoghi/resource/CulturalInstituteOrSite/20698,Archivio di Stato di Gorizia,http://dati.beniculturali.it/mibact/luoghi/resource/City/Gorizia,http://dati.beniculturali.it/mibact/luoghi/resource/Region/Friuli-Venezia_Giulia,45.949993,13.621326,Free Entry
http://dati.beniculturali.it/mibact/luoghi/resource/CulturalInstituteOrSite/126370,Archivio di Stato di Vibo Valentia,http://dati.beniculturali.it/mibact/luoghi/resource/City/Vibo_Valentia,http://dati.beniculturali.it/mibact/luoghi/resource/Region/Calabria,45.82864,10.098383,Free Entry
http://dati.beniculturali.it/mibact/luoghi/resource/CulturalInstituteOrSite/135677,Archivio di Stato di Perugia. Sezione di Gubbio,http://dati.beniculturali.it/mibact/luoghi/resource/City/Gubbio,http://dati.beniculturali.it/mibact/luoghi/resource/Region/Umbria,43.352547,12.576854,Free Entry
http://dati.beniculturali.it/mibact/luoghi/resource/CulturalInstituteOrSite/20110,Archivio di Stato di Vicenza. Sezione di Bassano del Grappa,http://dati.beniculturali.it/mibact/luoghi/resource/City/Bassano_del_Grappa,http://dati.beniculturali.it/mibact/luoghi/resource/Region/Veneto,45.76381,11.736915,Free Entry
http://dati.beniculturali.it/mibact/luoghi/resource/CulturalInstituteOrSite/122334,Archivio di Stato di Perugia,http://dati.beniculturali.it/mibact/luoghi/resource/City/Perugia,http://dati.beniculturali.it/mibact/luoghi/resource/Region/Umbria,43.10703,12.391462,Free Entry
http://dati.beniculturali.it/mibact/luoghi/resource/CulturalInstituteOrSite/116658,Archivio di Stato di Chieti. Sezione di Lanciano,http://dati.beniculturali.it/mibact/luoghi/resource/City/Lanciano,http://dati.beniculturali.it/mibact/luoghi/resource/Region/Abruzzo,42.222633,14.384823,Free Entry
http://dati.beniculturali.it/mibact/luoghi/resource/CulturalInstituteOrSite/116651,Archivio di Stato di Campobasso,http://dati.beniculturali.it/mibact/luoghi/resource/City/Campobasso,http://dati.beniculturali.it/mibact/luoghi/resource/Region/Molise,41.56199,14.659993,Free Entry
http://dati.beniculturali.it/mibact/luoghi/resource/CulturalInstituteOrSite/116634,Archivio di Stato di Alessandria,http://dati.beniculturali.it/mibact/luoghi/resource/City/Alessandria,http://dati.beniculturali.it/mibact/luoghi/resource/Region/Piemonte,44.91333,8.625687,Free Entry
http://dati.beniculturali.it/mibact/luoghi/resource/CulturalInstituteOrSite/110810,Archivio di Stato di Biella,http://dati.beniculturali.it/mibact/luoghi/resource/City/Biella,http://dati.beniculturali.it/mibact/luoghi/resource/Region/Piemonte,45.56464,8.049731,Free Entry
http://dati.beniculturali.it/mibact/luoghi/resource/CulturalInstituteOrSite/108550,Archivio di Stato di Napoli,http://dati.beniculturali.it/mibact/luoghi/resource/City/Napoli,http://dati.beniculturali.it/mibact/luoghi/resource/Region/Campania,40.848297,14.259622,Free Entry
http://dati.beniculturali.it/mibact/luoghi/resource/CulturalInstituteOrSite/116717,Archivio di Stato di Cosenza. Sezione di Castrovillari,http://dati.beniculturali.it/mibact/luoghi/resource/City/Castrovillari,http://dati.beniculturali.it/mibact/luoghi/resource/Region/Calabria,39.809044,16.207563,Free Entry
http://dati.beniculturali.it/mibact/luoghi/resource/CulturalInstituteOrSite/135676,Archivio di Stato di Perugia. Sezione di Assisi,http://dati.beniculturali.it/mibact/luoghi/resource/City/Assisi,http://dati.beniculturali.it/mibact/luoghi/resource/Region/Umbria,43.070557,12.615787,Free Entry
http://dati.beniculturali.it/mibact/luoghi/resource/CulturalInstituteOrSite/113140,Archivio di Stato di Arezzo,http://dati.beniculturali.it/mibact/luoghi/resource/City/Arezzo,http://dati.beniculturali.it/mibact/luoghi/resource/Region/Toscana,43.463284,11.879634,Free Entry
http://dati.beniculturali.it/mibact/luoghi/resource/CulturalInstituteOrSite/116653,Archivio di Stato di Catania. Sezione di Caltagirone,http://dati.beniculturali.it/mibact/luoghi/resource/City/Caltagirone,http://dati.beniculturali.it/mibact/luoghi/resource/Region/Sicilia,37.22468,14.51886,Free Entry
http://dati.beniculturali.it/mibact/luoghi/resource/CulturalInstituteOrSite/20686,Archivio di Stato di Pesaro-Urbino. Sezione di Urbino,http://dati.beniculturali.it/mibact/luoghi/resource/City/Urbino,http://dati.beniculturali.it/mibact/luoghi/resource/Region/Marche,43.674824,12.514355,Free Entry
http://dati.beniculturali.it/mibact/luoghi/resource/CulturalInstituteOrSite/20004,Archivio di stato di Oristano,http://dati.beniculturali.it/mibact/luoghi/resource/City/Oristano,http://dati.beniculturali.it/mibact/luoghi/resource/Region/Sardegna,39.90618,8.588387,Free Entry
http://dati.beniculturali.it/mibact/luoghi/resource/CulturalInstituteOrSite/121584,Archivio di Stato di Lucca,http://dati.beniculturali.it/mibact/luoghi/resource/City/Lucca,http://dati.beniculturali.it/mibact/luoghi/resource/Region/Toscana,43.84421,10.504594,Free Entry
http://dati.beniculturali.it/mibact/luoghi/resource/CulturalInstituteOrSite/126356,Archivio di Stato dell'Aquila,http://dati.beniculturali.it/mibact/luoghi/resource/City/L_Aquila,http://dati.beniculturali.it/mibact/luoghi/resource/Region/Abruzzo,42.341587,13.461116,Free Entry
http://dati.beniculturali.it/mibact/luoghi/resource/CulturalInstituteOrSite/20685,Archivio di Stato di Pescara,http://dati.beniculturali.it/mibact/luoghi/resource/City/Pescara,http://dati.beniculturali.it/mibact/luoghi/resource/Region/Abruzzo,42.454334,14.235692,Free Entry
http://dati.beniculturali.it/mibact/luoghi/resource/CulturalInstituteOrSite/126372,Archivio di Stato di Viterbo,http://dati.beniculturali.it/mibact/luoghi/resource/City/Viterbo,http://dati.beniculturali.it/mibact/luoghi/resource/Region/Lazio,42.428642,12.102955,Free Entry
http://dati.beniculturali.it/mibact/luoghi/resource/CulturalInstituteOrSite/145986,Archivio di Stato di Verbania,http://dati.beniculturali.it/mibact/luoghi/resource/City/Verbania,http://dati.beniculturali.it/mibact/luoghi/resource/Region/Piemonte,41.86956,12.568359,Free Entry
http://dati.beniculturali.it/mibact/luoghi/resource/CulturalInstituteOrSite/20681,Archivio di Stato di Verona,http://dati.beniculturali.it/mibact/luoghi/resource/City/Verona,http://dati.beniculturali.it/mibact/luoghi/resource/Region/Veneto,45.420124,10.985052,Free Entry
http://dati.beniculturali.it/mibact/luoghi/resource/CulturalInstituteOrSite/136277,Archivio di Stato di Matera,http://dati.beniculturali.it/mibact/luoghi/resource/City/Matera,http://dati.beniculturali.it/mibact/luoghi/resource/Region/Basilicata,40.668716,16.60802,Free Entry
http://dati.beniculturali.it/mibact/luoghi/resource/CulturalInstituteOrSite/136283,Archivio di Stato di Reggio Calabria. Sezione di Palmi,http://dati.beniculturali.it/mibact/luoghi/resource/City/Palmi,http://dati.beniculturali.it/mibact/luoghi/resource/Region/Calabria,38.36082,15.857681,Free Entry
http://dati.beniculturali.it/mibact/luoghi/resource/CulturalInstituteOrSite/20711,Archivio di Stato di Ancona,http://dati.beniculturali.it/mibact/luoghi/resource/City/Ancona,http://dati.beniculturali.it/mibact/luoghi/resource/Region/Marche,43.597733,13.503542,Free Entry
http://dati.beniculturali.it/mibact/luoghi/resource/CulturalInstituteOrSite/127086,Archivio di Stato di Firenze,http://dati.beniculturali.it/mibact/luoghi/resource/City/Firenze,http://dati.beniculturali.it/mibact/luoghi/resource/Region/Toscana,43.76833,11.26954,Free Entry
http://dati.beniculturali.it/mibact/luoghi/resource/CulturalInstituteOrSite/103147,Domus mazziniana,http://dati.beniculturali.it/mibact/luoghi/resource/City/Pisa,http://dati.beniculturali.it/mibact/luoghi/resource/Region/Toscana,43.711628,10.398145,Free Entry
http://dati.beniculturali.it/mibact/luoghi/resource/CulturalInstituteOrSite/100439,Archivio della fotografia,http://dati.beniculturali.it/mibact/luoghi/resource/City/La_Spezia,http://dati.beniculturali.it/mibact/luoghi/resource/Region/Liguria,44.11465,9.810335,Free Entry
http://dati.beniculturali.it/mibact/luoghi/resource/CulturalInstituteOrSite/150879,Villa Vicentini Miniussi,http://dati.beniculturali.it/mibact/luoghi/resource/City/Ronchi_dei_Legionari,http://dati.beniculturali.it/mibact/luoghi/resource/Region/Friuli-Venezia_Giulia,41.86956,12.568359,Free Entry
http://dati.beniculturali.it/mibact/luoghi/resource/CulturalInstituteOrSite/101958,Collezione storica ATC Bologna,http://dati.beniculturali.it/mibact/luoghi/resource/City/Bologna,http://dati.beniculturali.it/mibact/luoghi/resource/Region/Emilia-Romagna,44.507275,11.350482,Free Entry
