Museum_ID,Museum_Name,Museum_City,Museum_Region,Museum_Latitude,Museum_Longitude,Ticket_Cost
http://dati.beniculturali.it/mibact/luoghi/resource/CulturalInstituteOrSite/20533,Parco Poesia Pascoli - Museo Casa Pascoli,http://dati.beniculturali.it/mibact/luoghi/resource/City/San_Mauro_Pascoli,http://dati.beniculturali.it/mibact/luoghi/resource/Region/Emilia-Romagna,44.105186,12.415602,3.00
http://dati.beniculturali.it/mibact/luoghi/resource/CulturalInstituteOrSite/103782,Museo di arte contemporanea Giuseppe e Titina Dal Verme,http://dati.beniculturali.it/mibact/luoghi/resource/City/Zavattarello,http://dati.beniculturali.it/mibact/luoghi/resource/Region/Lombardia,44.868443,9.266259,2.00
http://dati.beniculturali.it/mibact/luoghi/resource/CulturalInstituteOrSite/20284,Museo delle navi romane di Nemi,http://dati.beniculturali.it/mibact/luoghi/resource/City/Nemi,http://dati.beniculturali.it/mibact/luoghi/resource/Region/Lazio,41.721714,12.701998,5.00
http://dati.beniculturali.it/mibact/luoghi/resource/CulturalInstituteOrSite/101244,Museo parrocchiale di Castroreale,http://dati.beniculturali.it/mibact/luoghi/resource/City/Castroreale,http://dati.beniculturali.it/mibact/luoghi/resource/Region/Sicilia,38.100582,15.212629,2.00
http://dati.beniculturali.it/mibact/luoghi/resource/CulturalInstituteOrSite/105549,Parco archeologico e Museo all'aperto della Terramara di Montale,http://dati.beniculturali.it/mibact/luoghi/resource/City/Castelnuovo_Rangone,http://dati.beniculturali.it/mibact/luoghi/resource/Region/Emilia-Romagna,44.57048,10.905629,7.00
http://dati.beniculturali.it/mibact/luoghi/resource/CulturalInstituteOrSite/106442,"Museo del Risorgimento, Rocca e Ossario di Solferino",http://dati.beniculturali.it/mibact/luoghi/resource/City/Solferino,http://dati.beniculturali.it/mibact/luoghi/resource/Region/Lombardia,45.37303,10.566523,2.50
http://dati.beniculturali.it/mibact/luoghi/resource/CulturalInstituteOrSite/106563,Grotte di Catullo e Museo archeologico di Sirmione,http://dati.beniculturali.it/mibact/luoghi/resource/City/Sirmione,http://dati.beniculturali.it/mibact/luoghi/resource/Region/Lombardia,45.501453,10.606448,8.00
http://dati.beniculturali.it/mibact/luoghi/resource/CulturalInstituteOrSite/102159,Museo gli Orsanti,http://dati.beniculturali.it/mibact/luoghi/resource/City/Vernasca,http://dati.beniculturali.it/mibact/luoghi/resource/Region/Emilia-Romagna,44.84872,9.87256,4.00
http://dati.beniculturali.it/mibact/luoghi/resource/CulturalInstituteOrSite/104319,"Museo archeologico ""Tifernum Mataurense""",http://dati.beniculturali.it/mibact/luoghi/resource/City/Sant_Angelo_in_Vado,http://dati.beniculturali.it/mibact/luoghi/resource/Region/Marche,43.666393,12.416167,5.00
http://dati.beniculturali.it/mibact/luoghi/resource/CulturalInstituteOrSite/102950,Museo di Palazzo Vecchio,http://dati.beniculturali.it/mibact/luoghi/resource/City/Firenze,http://dati.beniculturali.it/mibact/luoghi/resource/Region/Toscana,43.769253,11.255596,12.50
http://dati.beniculturali.it/mibact/luoghi/resource/CulturalInstituteOrSite/108274,Museo Castello ducale di Corigliano Calabro,http://dati.beniculturali.it/mibact/luoghi/resource/City/Corigliano_Calabro,http://dati.beniculturali.it/mibact/luoghi/resource/Region/Calabria,39.594185,16.520102,5.00
http://dati.beniculturali.it/mibact/luoghi/resource/CulturalInstituteOrSite/103744,Museo di Palazzo Te,http://dati.beniculturali.it/mibact/luoghi/resource/City/Mantova,http://dati.beniculturali.it/mibact/luoghi/resource/Region/Lombardia,45.146954,10.7888,12.00
http://dati.beniculturali.it/mibact/luoghi/resource/CulturalInstituteOrSite/102065,Casa museo Remo Brindisi,http://dati.beniculturali.it/mibact/luoghi/resource/City/Comacchio,http://dati.beniculturali.it/mibact/luoghi/resource/Region/Emilia-Romagna,44.65114,12.249218,4.50
http://dati.beniculturali.it/mibact/luoghi/resource/CulturalInstituteOrSite/106440,Museo etnografico dei mestieri del Fiume di Rivalta sul Mincio,http://dati.beniculturali.it/mibact/luoghi/resource/City/Rodigo,http://dati.beniculturali.it/mibact/luoghi/resource/Region/Lombardia,45.17877,10.681659,2.00
http://dati.beniculturali.it/mibact/luoghi/resource/CulturalInstituteOrSite/20165,Museo e Parco archeologico nazionale di Scolacium,http://dati.beniculturali.it/mibact/luoghi/resource/City/Borgia,http://dati.beniculturali.it/mibact/luoghi/resource/Region/Calabria,38.81204,16.591545,5.00
http://dati.beniculturali.it/mibact/luoghi/resource/CulturalInstituteOrSite/110151,Casa museo di Niccolo' Machiavelli,http://dati.beniculturali.it/mibact/luoghi/resource/City/San_Casciano_in_Val_di_Pesa,http://dati.beniculturali.it/mibact/luoghi/resource/Region/Toscana,43.682747,11.197732,0.00
http://dati.beniculturali.it/mibact/luoghi/resource/CulturalInstituteOrSite/20311,Museo archeologico nazionale e zona archeologica di Luni,http://dati.beniculturali.it/mibact/luoghi/resource/City/Ortonovo,http://dati.beniculturali.it/mibact/luoghi/resource/Region/Liguria,44.06376,10.017087,4.00
http://dati.beniculturali.it/mibact/luoghi/resource/CulturalInstituteOrSite/20667,Museo e Parco archeologico dell'Antica Kaulon,http://dati.beniculturali.it/mibact/luoghi/resource/City/Monasterace,http://dati.beniculturali.it/mibact/luoghi/resource/Region/Calabria,38.446354,16.57791,4.00
http://dati.beniculturali.it/mibact/luoghi/resource/CulturalInstituteOrSite/104248,Museo archeologico dell’Abbazia di Santa Maria di Chiaravalle di Fiastra,http://dati.beniculturali.it/mibact/luoghi/resource/City/Tolentino,http://dati.beniculturali.it/mibact/luoghi/resource/Region/Marche,43.21361,13.291111,3.00
http://dati.beniculturali.it/mibact/luoghi/resource/CulturalInstituteOrSite/100608,Museo etnografico di Maso Spilzi,http://dati.beniculturali.it/mibact/luoghi/resource/City/Folgaria,http://dati.beniculturali.it/mibact/luoghi/resource/Region/Trentino-Alto_Adige,45.91571,11.171807,2.60
http://dati.beniculturali.it/mibact/luoghi/resource/CulturalInstituteOrSite/20276,Parco archeologico di Paestum e Velia - Museo archeologico nazionale,http://dati.beniculturali.it/mibact/luoghi/resource/City/Capaccio_Paestum,http://dati.beniculturali.it/mibact/luoghi/resource/Region/Campania,40.42339,15.006858,15.00
http://dati.beniculturali.it/mibact/luoghi/resource/CulturalInstituteOrSite/103530,Museo Casa di Arlecchino,http://dati.beniculturali.it/mibact/luoghi/resource/City/San_Giovanni_Bianco,http://dati.beniculturali.it/mibact/luoghi/resource/Region/Lombardia,45.874866,9.653048,1.50
http://dati.beniculturali.it/mibact/luoghi/resource/CulturalInstituteOrSite/104067,Museo delle armi antiche e della Rocca medievale,http://dati.beniculturali.it/mibact/luoghi/resource/City/Offagna,http://dati.beniculturali.it/mibact/luoghi/resource/Region/Marche,43.527874,13.441587,5.00
http://dati.beniculturali.it/mibact/luoghi/resource/CulturalInstituteOrSite/103708,Museo della Basilica di Sant'Eustorgio,http://dati.beniculturali.it/mibact/luoghi/resource/City/Milano,http://dati.beniculturali.it/mibact/luoghi/resource/Region/Lombardia,45.453697,9.181042,6.00
http://dati.beniculturali.it/mibact/luoghi/resource/CulturalInstituteOrSite/103623,Villa Carlotta - Museo e giardino botanico,http://dati.beniculturali.it/mibact/luoghi/resource/City/Tremezzo,http://dati.beniculturali.it/mibact/luoghi/resource/Region/Lombardia,45.986187,9.230543,12.00
http://dati.beniculturali.it/mibact/luoghi/resource/CulturalInstituteOrSite/106432,Museo di Palazzo d’Arco,http://dati.beniculturali.it/mibact/luoghi/resource/City/Mantova,http://dati.beniculturali.it/mibact/luoghi/resource/Region/Lombardia,45.16078,10.789119,10.00
http://dati.beniculturali.it/mibact/luoghi/resource/CulturalInstituteOrSite/111580,Museo regionale e Area archeologica della Villa romana del Casale,http://dati.beniculturali.it/mibact/luoghi/resource/City/Piazza_Armerina,http://dati.beniculturali.it/mibact/luoghi/resource/Region/Sicilia,37.38577,14.370671,10.00
http://dati.beniculturali.it/mibact/luoghi/resource/CulturalInstituteOrSite/20246,Museo nazionale di Castel Sant'Angelo,http://dati.beniculturali.it/mibact/luoghi/resource/City/Roma,http://dati.beniculturali.it/mibact/luoghi/resource/Region/Lazio,41.903065,12.466276,16.00
http://dati.beniculturali.it/mibact/luoghi/resource/CulturalInstituteOrSite/103702,Museo bagatti Valsecchi,http://dati.beniculturali.it/mibact/luoghi/resource/City/Milano,http://dati.beniculturali.it/mibact/luoghi/resource/Region/Lombardia,45.469246,9.194753,12.00
http://dati.beniculturali.it/mibact/luoghi/resource/CulturalInstituteOrSite/100065,Museo civico Porta della terra e Parco archeologico del Quadrilatero,http://dati.beniculturali.it/mibact/luoghi/resource/City/San_Salvo,http://dati.beniculturali.it/mibact/luoghi/resource/Region/Abruzzo,42.05058,14.731499,3.00
http://dati.beniculturali.it/mibact/luoghi/resource/CulturalInstituteOrSite/104289,Museo di rievocazione storica della Rocca Roveresca,http://dati.beniculturali.it/mibact/luoghi/resource/City/Mondavio,http://dati.beniculturali.it/mibact/luoghi/resource/Region/Marche,43.674274,12.968471,5.00
http://dati.beniculturali.it/mibact/luoghi/resource/CulturalInstituteOrSite/103670,Ecomuseo della Cascina Grazzanello,http://dati.beniculturali.it/mibact/luoghi/resource/City/Mairago,http://dati.beniculturali.it/mibact/luoghi/resource/Region/Lombardia,45.25333,9.562781,7.00
http://dati.beniculturali.it/mibact/luoghi/resource/CulturalInstituteOrSite/103897,"Museo didattico della riserva - Riserva naturale incisioni rupestri di Ceto, Cimbergo e Paspardo",http://dati.beniculturali.it/mibact/luoghi/resource/City/Ceto,http://dati.beniculturali.it/mibact/luoghi/resource/Region/Lombardia,46.012028,10.352962,3.00
http://dati.beniculturali.it/mibact/luoghi/resource/CulturalInstituteOrSite/106291,Associazione Amici del Museo di scienze naturali Belvi',http://dati.beniculturali.it/mibact/luoghi/resource/City/Belvi,http://dati.beniculturali.it/mibact/luoghi/resource/Region/Sardegna,39.95884,9.183654,3.00
http://dati.beniculturali.it/mibact/luoghi/resource/CulturalInstituteOrSite/103578,Museo Casa del Podestà,http://dati.beniculturali.it/mibact/luoghi/resource/City/Lonato_del_Garda,http://dati.beniculturali.it/mibact/luoghi/resource/Region/Lombardia,45.461323,10.485811,8.00
http://dati.beniculturali.it/mibact/luoghi/resource/CulturalInstituteOrSite/101397,Museo storico bonifaciano del Lazio meridionale,http://dati.beniculturali.it/mibact/luoghi/resource/City/Anagni,http://dati.beniculturali.it/mibact/luoghi/resource/Region/Lazio,41.7428,13.160602,5.00
http://dati.beniculturali.it/mibact/luoghi/resource/CulturalInstituteOrSite/20751,Abbazia di Pomposa e Museo pomposiano,http://dati.beniculturali.it/mibact/luoghi/resource/City/Codigoro,http://dati.beniculturali.it/mibact/luoghi/resource/Region/Emilia-Romagna,44.831486,12.176168,5.00
http://dati.beniculturali.it/mibact/luoghi/resource/CulturalInstituteOrSite/100068,Palazzo d'Avalos - Musei civici,http://dati.beniculturali.it/mibact/luoghi/resource/City/Vasto,http://dati.beniculturali.it/mibact/luoghi/resource/Region/Abruzzo,42.111843,14.70951,3.50
http://dati.beniculturali.it/mibact/luoghi/resource/CulturalInstituteOrSite/103420,Museo del cavallino della giara,http://dati.beniculturali.it/mibact/luoghi/resource/City/Genoni,http://dati.beniculturali.it/mibact/luoghi/resource/Region/Sardegna,39.79469,9.006934,3.50
http://dati.beniculturali.it/mibact/luoghi/resource/CulturalInstituteOrSite/101187,Museo storico - Castello Nelson,http://dati.beniculturali.it/mibact/luoghi/resource/City/Bronte,http://dati.beniculturali.it/mibact/luoghi/resource/Region/Sicilia,37.78835,14.830666,1.50
http://dati.beniculturali.it/mibact/luoghi/resource/CulturalInstituteOrSite/114318,"Museo nazionale ""Memoriale Giuseppe Garibaldi""",http://dati.beniculturali.it/mibact/luoghi/resource/City/La_Maddalena,http://dati.beniculturali.it/mibact/luoghi/resource/Region/Sardegna,41.216015,9.46221,6.00
http://dati.beniculturali.it/mibact/luoghi/resource/CulturalInstituteOrSite/102695,Museo naturalistico di Fenestrelle,http://dati.beniculturali.it/mibact/luoghi/resource/City/Fenestrelle,http://dati.beniculturali.it/mibact/luoghi/resource/Region/Piemonte,45.037827,7.067565,2.00
http://dati.beniculturali.it/mibact/luoghi/resource/CulturalInstituteOrSite/106430,Museo della città Palazzo San Sebastiano,http://dati.beniculturali.it/mibact/luoghi/resource/City/Mantova,http://dati.beniculturali.it/mibact/luoghi/resource/Region/Lombardia,45.150463,10.787227,12.00
http://dati.beniculturali.it/mibact/luoghi/resource/CulturalInstituteOrSite/20236,"Castello di Canossa e Museo nazionale ""Naborre Campanini""",http://dati.beniculturali.it/mibact/luoghi/resource/City/Canossa,http://dati.beniculturali.it/mibact/luoghi/resource/Region/Emilia-Romagna,44.5752,10.455251,4.00
http://dati.beniculturali.it/mibact/luoghi/resource/CulturalInstituteOrSite/101884,Museo della carta di Amalfi,http://dati.beniculturali.it/mibact/luoghi/resource/City/Amalfi,http://dati.beniculturali.it/mibact/luoghi/resource/Region/Campania,40.63971,14.600144,4.50
http://dati.beniculturali.it/mibact/luoghi/resource/CulturalInstituteOrSite/20778,Castel Sant'Elmo e Museo del Novecento a Napoli,http://dati.beniculturali.it/mibact/luoghi/resource/City/Napoli,http://dati.beniculturali.it/mibact/luoghi/resource/Region/Campania,40.84385,14.239273,5.00
http://dati.beniculturali.it/mibact/luoghi/resource/CulturalInstituteOrSite/100093,Museo delle armi e delle mappe antiche della fortezza di Civitella del Tronto,http://dati.beniculturali.it/mibact/luoghi/resource/City/Civitella_del_Tronto,http://dati.beniculturali.it/mibact/luoghi/resource/Region/Abruzzo,42.773052,13.676165,3.00
http://dati.beniculturali.it/mibact/luoghi/resource/CulturalInstituteOrSite/20331,Museo nazionale archeologico e Castello di Manfredonia,http://dati.beniculturali.it/mibact/luoghi/resource/City/Manfredonia,http://dati.beniculturali.it/mibact/luoghi/resource/Region/Puglia,41.629456,15.922531,8.00
http://dati.beniculturali.it/mibact/luoghi/resource/CulturalInstituteOrSite/100613,Museo Forte Belvedere,http://dati.beniculturali.it/mibact/luoghi/resource/City/Lavarone,http://dati.beniculturali.it/mibact/luoghi/resource/Region/Trentino-Alto_Adige,45.93941,11.274573,6.00
http://dati.beniculturali.it/mibact/luoghi/resource/CulturalInstituteOrSite/103142,Museo delle navi antiche,http://dati.beniculturali.it/mibact/luoghi/resource/City/Pisa,http://dati.beniculturali.it/mibact/luoghi/resource/Region/Toscana,43.72284,10.401689,11.00
http://dati.beniculturali.it/mibact/luoghi/resource/CulturalInstituteOrSite/111616,Museo naturalistico regionale di Isolabella e Villa Caronia,http://dati.beniculturali.it/mibact/luoghi/resource/City/Taormina,http://dati.beniculturali.it/mibact/luoghi/resource/Region/Sicilia,37.848522,15.295889,4.00
http://dati.beniculturali.it/mibact/luoghi/resource/CulturalInstituteOrSite/103581,Museo etnografico del ferro Le Fudine,http://dati.beniculturali.it/mibact/luoghi/resource/City/Malegno,http://dati.beniculturali.it/mibact/luoghi/resource/Region/Lombardia,45.95082,10.276224,2.00
http://dati.beniculturali.it/mibact/luoghi/resource/CulturalInstituteOrSite/103457,Civico museo archeologico di Ozieri,http://dati.beniculturali.it/mibact/luoghi/resource/City/Ozieri,http://dati.beniculturali.it/mibact/luoghi/resource/Region/Sardegna,40.587036,9.00237,5.00
http://dati.beniculturali.it/mibact/luoghi/resource/CulturalInstituteOrSite/100176,Castello di Gorizia - Museo del Medioevo goriziano,http://dati.beniculturali.it/mibact/luoghi/resource/City/Gorizia,http://dati.beniculturali.it/mibact/luoghi/resource/Region/Friuli-Venezia_Giulia,45.942444,13.628764,3.00
http://dati.beniculturali.it/mibact/luoghi/resource/CulturalInstituteOrSite/20452,Spazio museale di San Pancrazio,http://dati.beniculturali.it/mibact/luoghi/resource/City/Cagliari,http://dati.beniculturali.it/mibact/luoghi/resource/Region/Sardegna,39.22245,9.116735,9.00
http://dati.beniculturali.it/mibact/luoghi/resource/CulturalInstituteOrSite/100395,Museo minerario miniera di Gambatesa,http://dati.beniculturali.it/mibact/luoghi/resource/City/Ne,http://dati.beniculturali.it/mibact/luoghi/resource/Region/Liguria,44.36953,9.455121,11.00
http://dati.beniculturali.it/mibact/luoghi/resource/CulturalInstituteOrSite/106422,Museo della Seconda Guerra Mondiale del Fiume Po,http://dati.beniculturali.it/mibact/luoghi/resource/City/Felonica,http://dati.beniculturali.it/mibact/luoghi/resource/Region/Lombardia,44.98002,11.35487,8.00
http://dati.beniculturali.it/mibact/luoghi/resource/CulturalInstituteOrSite/100250,Museo ferroviario di Trieste Campo Marzio,http://dati.beniculturali.it/mibact/luoghi/resource/City/Trieste,http://dati.beniculturali.it/mibact/luoghi/resource/Region/Friuli-Venezia_Giulia,45.64553,13.754997,5.00
http://dati.beniculturali.it/mibact/luoghi/resource/CulturalInstituteOrSite/103689,Civica raccolta museale Don Cesare Amelli,http://dati.beniculturali.it/mibact/luoghi/resource/City/Melegnano,http://dati.beniculturali.it/mibact/luoghi/resource/Region/Lombardia,45.357136,9.32363,2.50
http://dati.beniculturali.it/mibact/luoghi/resource/CulturalInstituteOrSite/103804,Museo preistorico dell'Isolino Virginia,http://dati.beniculturali.it/mibact/luoghi/resource/City/Biandronno,http://dati.beniculturali.it/mibact/luoghi/resource/Region/Lombardia,45.820175,8.714509,2.00
http://dati.beniculturali.it/mibact/luoghi/resource/CulturalInstituteOrSite/100817,Museo delle alpi - Forte di Bard,http://dati.beniculturali.it/mibact/luoghi/resource/City/Bard,http://dati.beniculturali.it/mibact/luoghi/resource/Region/Valle_d_Aosta_Vallee_d_Aoste,45.608093,7.744589,8.00
http://dati.beniculturali.it/mibact/luoghi/resource/CulturalInstituteOrSite/104093,Musei della cartiera papale,http://dati.beniculturali.it/mibact/luoghi/resource/City/Ascoli_Piceno,http://dati.beniculturali.it/mibact/luoghi/resource/Region/Marche,42.8493,13.570154,4.00
http://dati.beniculturali.it/mibact/luoghi/resource/CulturalInstituteOrSite/100633,Museo Casa degli spaventapasseri,http://dati.beniculturali.it/mibact/luoghi/resource/City/Roncegno_Terme,http://dati.beniculturali.it/mibact/luoghi/resource/Region/Trentino-Alto_Adige,46.054295,11.377831,2.00
http://dati.beniculturali.it/mibact/luoghi/resource/CulturalInstituteOrSite/100440,Museo territorio Valle Lagorara,http://dati.beniculturali.it/mibact/luoghi/resource/City/Maissana,http://dati.beniculturali.it/mibact/luoghi/resource/Region/Liguria,44.34961,9.546127,6.00
http://dati.beniculturali.it/mibact/luoghi/resource/CulturalInstituteOrSite/105134,Museo Casa Giorgione,http://dati.beniculturali.it/mibact/luoghi/resource/City/Castelfranco_Veneto,http://dati.beniculturali.it/mibact/luoghi/resource/Region/Veneto,45.671318,11.926228,5.00
http://dati.beniculturali.it/mibact/luoghi/resource/CulturalInstituteOrSite/101273,"Museo storico artistico castello comunale ""Rufo Ruffo""",http://dati.beniculturali.it/mibact/luoghi/resource/City/Scaletta_Zanclea,http://dati.beniculturali.it/mibact/luoghi/resource/Region/Sicilia,38.045742,15.463606,2.00
http://dati.beniculturali.it/mibact/luoghi/resource/CulturalInstituteOrSite/106445,Museo Francioli Nuvolari,http://dati.beniculturali.it/mibact/luoghi/resource/City/Villimpenta,http://dati.beniculturali.it/mibact/luoghi/resource/Region/Lombardia,45.145844,11.031379,2.00
http://dati.beniculturali.it/mibact/luoghi/resource/CulturalInstituteOrSite/108338,Musaba - Parco Museo Laboratorio,http://dati.beniculturali.it/mibact/luoghi/resource/City/Mammola,http://dati.beniculturali.it/mibact/luoghi/resource/Region/Calabria,38.37154,16.24054,8.00
http://dati.beniculturali.it/mibact/luoghi/resource/CulturalInstituteOrSite/103814,Museo civico Branda Castiglioni,http://dati.beniculturali.it/mibact/luoghi/resource/City/Castiglione_Olona,http://dati.beniculturali.it/mibact/luoghi/resource/Region/Lombardia,45.77452,8.855649,3.00
http://dati.beniculturali.it/mibact/luoghi/resource/CulturalInstituteOrSite/102942,Museo di Santa Maria Novella,http://dati.beniculturali.it/mibact/luoghi/resource/City/Firenze,http://dati.beniculturali.it/mibact/luoghi/resource/Region/Toscana,43.7743,11.249367,7.50
http://dati.beniculturali.it/mibact/luoghi/resource/CulturalInstituteOrSite/100221,Museo Castello di Duino,http://dati.beniculturali.it/mibact/luoghi/resource/City/Duino-Aurisina,http://dati.beniculturali.it/mibact/luoghi/resource/Region/Friuli-Venezia_Giulia,45.77399,13.601086,10.00
http://dati.beniculturali.it/mibact/luoghi/resource/CulturalInstituteOrSite/103291,Museo bottega del fabbro,http://dati.beniculturali.it/mibact/luoghi/resource/City/Armungia,http://dati.beniculturali.it/mibact/luoghi/resource/Region/Sardegna,39.521103,9.381557,6.00
http://dati.beniculturali.it/mibact/luoghi/resource/CulturalInstituteOrSite/103685,Museo civico il Ninfeo di Lainate - Villa Litta,http://dati.beniculturali.it/mibact/luoghi/resource/City/Lainate,http://dati.beniculturali.it/mibact/luoghi/resource/Region/Lombardia,45.570908,9.026296,10.00
http://dati.beniculturali.it/mibact/luoghi/resource/CulturalInstituteOrSite/102705,Castello di Mazzè e Museo della tortura,http://dati.beniculturali.it/mibact/luoghi/resource/City/Mazze,http://dati.beniculturali.it/mibact/luoghi/resource/Region/Piemonte,45.3053,7.938764,10.00
http://dati.beniculturali.it/mibact/luoghi/resource/CulturalInstituteOrSite/20235,Museo nazionale romano - Aula ottagona delle Terme di Diocleziano,http://dati.beniculturali.it/mibact/luoghi/resource/City/Roma,http://dati.beniculturali.it/mibact/luoghi/resource/Region/Lazio,41.903595,12.495974,8.00
http://dati.beniculturali.it/mibact/luoghi/resource/CulturalInstituteOrSite/104928,Museo della Via Spluga e della Val San Giacomo (Mu.Vi.S.),http://dati.beniculturali.it/mibact/luoghi/resource/City/Campodolcino,http://dati.beniculturali.it/mibact/luoghi/resource/Region/Lombardia,46.40651,9.352354,4.00
http://dati.beniculturali.it/mibact/luoghi/resource/CulturalInstituteOrSite/20504,Museo nazionale del Castello Malaspina,http://dati.beniculturali.it/mibact/luoghi/resource/City/Bobbio,http://dati.beniculturali.it/mibact/luoghi/resource/Region/Emilia-Romagna,44.768085,9.382789,2.50
http://dati.beniculturali.it/mibact/luoghi/resource/CulturalInstituteOrSite/20263,Museo archeologico nazionale di Civitavecchia,http://dati.beniculturali.it/mibact/luoghi/resource/City/Civitavecchia,http://dati.beniculturali.it/mibact/luoghi/resource/Region/Lazio,42.091053,11.792797,3.00
http://dati.beniculturali.it/mibact/luoghi/resource/CulturalInstituteOrSite/111744,Museo Casa Porfido - Ente Sviluppo Porfido,http://dati.beniculturali.it/mibact/luoghi/resource/City/Albiano,http://dati.beniculturali.it/mibact/luoghi/resource/Region/Trentino-Alto_Adige,46.144363,11.194111,3.00
http://dati.beniculturali.it/mibact/luoghi/resource/CulturalInstituteOrSite/100553,Museo della macchina da scrivere Peter Mitterhofer,http://dati.beniculturali.it/mibact/luoghi/resource/City/Parcines_Partschins,http://dati.beniculturali.it/mibact/luoghi/resource/Region/Trentino-Alto_Adige,46.684155,11.07354,7.00
http://dati.beniculturali.it/mibact/luoghi/resource/CulturalInstituteOrSite/108144,Museo della bilancia,http://dati.beniculturali.it/mibact/luoghi/resource/City/Campogalliano,http://dati.beniculturali.it/mibact/luoghi/resource/Region/Emilia-Romagna,44.691048,10.839754,5.00
http://dati.beniculturali.it/mibact/luoghi/resource/CulturalInstituteOrSite/103750,Museo Tazio Nuvolari,http://dati.beniculturali.it/mibact/luoghi/resource/City/Mantova,http://dati.beniculturali.it/mibact/luoghi/resource/Region/Lombardia,45.16027,10.797585,5.00
http://dati.beniculturali.it/mibact/luoghi/resource/CulturalInstituteOrSite/106122,"Museo archeologico-naturalistico ""Adolfo Klitsche de la Grange""",http://dati.beniculturali.it/mibact/luoghi/resource/City/Allumiere,http://dati.beniculturali.it/mibact/luoghi/resource/Region/Lazio,42.156185,11.901691,3.00
http://dati.beniculturali.it/mibact/luoghi/resource/CulturalInstituteOrSite/100430,Museo dell'apicoltura,http://dati.beniculturali.it/mibact/luoghi/resource/City/Calice_al_Cornoviglio,http://dati.beniculturali.it/mibact/luoghi/resource/Region/Liguria,44.24306,9.836418,3.00
http://dati.beniculturali.it/mibact/luoghi/resource/CulturalInstituteOrSite/106173,"Museo di macchine agricole ""Carlo Santini""",http://dati.beniculturali.it/mibact/luoghi/resource/City/Portici,http://dati.beniculturali.it/mibact/luoghi/resource/Region/Campania,40.812035,14.341664,5.00
http://dati.beniculturali.it/mibact/luoghi/resource/CulturalInstituteOrSite/106770,Marengo Museum,http://dati.beniculturali.it/mibact/luoghi/resource/City/Alessandria,http://dati.beniculturali.it/mibact/luoghi/resource/Region/Piemonte,44.913216,8.616951,5.00
http://dati.beniculturali.it/mibact/luoghi/resource/CulturalInstituteOrSite/107186,Palazzo Borea D’Olmo,http://dati.beniculturali.it/mibact/luoghi/resource/City/Sanremo,http://dati.beniculturali.it/mibact/luoghi/resource/Region/Liguria,43.825542,7.692352,10.00
http://dati.beniculturali.it/mibact/luoghi/resource/CulturalInstituteOrSite/122613,Musei nazionali di Matera - Ex Ospedale San Rocco,http://dati.beniculturali.it/mibact/luoghi/resource/City/Matera,http://dati.beniculturali.it/mibact/luoghi/resource/Region/Basilicata,40.667515,16.607794,3.00
http://dati.beniculturali.it/mibact/luoghi/resource/CulturalInstituteOrSite/101439,Museo per la matematica - Giochiamo all’infinito,http://dati.beniculturali.it/mibact/luoghi/resource/City/Priverno,http://dati.beniculturali.it/mibact/luoghi/resource/Region/Lazio,41.457535,13.193682,3.80
http://dati.beniculturali.it/mibact/luoghi/resource/CulturalInstituteOrSite/103598,Museo I magli di Sarezzo,http://dati.beniculturali.it/mibact/luoghi/resource/City/Sarezzo,http://dati.beniculturali.it/mibact/luoghi/resource/Region/Lombardia,45.64637,10.202038,3.00
http://dati.beniculturali.it/mibact/luoghi/resource/CulturalInstituteOrSite/102539,Museo dei Cavatappi,http://dati.beniculturali.it/mibact/luoghi/resource/City/Barolo,http://dati.beniculturali.it/mibact/luoghi/resource/Region/Piemonte,44.610634,7.944108,4.00
http://dati.beniculturali.it/mibact/luoghi/resource/CulturalInstituteOrSite/20784,Musei nazionali di Genova - Museo Palazzo Reale di Genova,http://dati.beniculturali.it/mibact/luoghi/resource/City/Genova,http://dati.beniculturali.it/mibact/luoghi/resource/Region/Liguria,44.415497,8.926203,12.00
http://dati.beniculturali.it/mibact/luoghi/resource/CulturalInstituteOrSite/105719,"Museo diocesano ""A. Bergamaschi""",http://dati.beniculturali.it/mibact/luoghi/resource/City/Pennabilli,http://dati.beniculturali.it/mibact/luoghi/resource/Region/Emilia-Romagna,43.81633,12.263204,5.00
http://dati.beniculturali.it/mibact/luoghi/resource/CulturalInstituteOrSite/101930,"Museo civico ""A. Crespellani""",http://dati.beniculturali.it/mibact/luoghi/resource/City/Bazzano,http://dati.beniculturali.it/mibact/luoghi/resource/Region/Emilia-Romagna,44.503357,11.0837,4.00
http://dati.beniculturali.it/mibact/luoghi/resource/CulturalInstituteOrSite/103690,Museo manzoniano - Casa del Manzoni,http://dati.beniculturali.it/mibact/luoghi/resource/City/Milano,http://dati.beniculturali.it/mibact/luoghi/resource/Region/Lombardia,45.4679,9.192139,8.00
http://dati.beniculturali.it/mibact/luoghi/resource/CulturalInstituteOrSite/132053,Museo nazionale Collezione Salce sede di San Gaetano,http://dati.beniculturali.it/mibact/luoghi/resource/City/Treviso,http://dati.beniculturali.it/mibact/luoghi/resource/Region/Veneto,45.665623,12.250757,9.00
http://dati.beniculturali.it/mibact/luoghi/resource/CulturalInstituteOrSite/101636,Museo d’arte sacra di Orte,http://dati.beniculturali.it/mibact/luoghi/resource/City/Orte,http://dati.beniculturali.it/mibact/luoghi/resource/Region/Lazio,42.459995,12.386432,3.00
http://dati.beniculturali.it/mibact/luoghi/resource/CulturalInstituteOrSite/101555,Museo delle carrozze d'epoca,http://dati.beniculturali.it/mibact/luoghi/resource/City/Roma,http://dati.beniculturali.it/mibact/luoghi/resource/Region/Lazio,41.816975,12.519553,7.00
http://dati.beniculturali.it/mibact/luoghi/resource/CulturalInstituteOrSite/101970,Museo della sanità e dell'assistenza,http://dati.beniculturali.it/mibact/luoghi/resource/City/Bologna,http://dati.beniculturali.it/mibact/luoghi/resource/Region/Emilia-Romagna,44.493305,11.344365,5.00
http://dati.beniculturali.it/mibact/luoghi/resource/CulturalInstituteOrSite/105909,Museo della ceramica di Bassano del Grappa,http://dati.beniculturali.it/mibact/luoghi/resource/City/Bassano_del_Grappa,http://dati.beniculturali.it/mibact/luoghi/resource/Region/Veneto,45.766342,11.731689,7.00
http://dati.beniculturali.it/mibact/luoghi/resource/CulturalInstituteOrSite/108089,Palazzo Collicola arti visive - Museo Carandente,http://dati.beniculturali.it/mibact/luoghi/resource/City/Spoleto,http://dati.beniculturali.it/mibact/luoghi/resource/Region/Umbria,42.734974,12.73434,6.00
http://dati.beniculturali.it/mibact/luoghi/resource/CulturalInstituteOrSite/110798,Pinacoteca Patiniana,http://dati.beniculturali.it/mibact/luoghi/resource/City/Castel_di_Sangro,http://dati.beniculturali.it/mibact/luoghi/resource/Region/Abruzzo,41.74588,14.03875,1.00
http://dati.beniculturali.it/mibact/luoghi/resource/CulturalInstituteOrSite/20484,Certosa e Museo di San Martino,http://dati.beniculturali.it/mibact/luoghi/resource/City/Napoli,http://dati.beniculturali.it/mibact/luoghi/resource/Region/Campania,40.84341,14.241129,6.00
http://dati.beniculturali.it/mibact/luoghi/resource/CulturalInstituteOrSite/103360,Museo multimediale del canto a tenore,http://dati.beniculturali.it/mibact/luoghi/resource/City/Bitti,http://dati.beniculturali.it/mibact/luoghi/resource/Region/Sardegna,40.47777,9.38314,2.60
http://dati.beniculturali.it/mibact/luoghi/resource/CulturalInstituteOrSite/104088,Museo antropogeografico di Amandola,http://dati.beniculturali.it/mibact/luoghi/resource/City/Amandola,http://dati.beniculturali.it/mibact/luoghi/resource/Region/Marche,42.94229,13.342717,3.00
http://dati.beniculturali.it/mibact/luoghi/resource/CulturalInstituteOrSite/103674,Museo storico Alfa Romeo,http://dati.beniculturali.it/mibact/luoghi/resource/City/Arese,http://dati.beniculturali.it/mibact/luoghi/resource/Region/Lombardia,45.5585,9.052295,12.00
http://dati.beniculturali.it/mibact/luoghi/resource/CulturalInstituteOrSite/106297,Museo vivente dell’arte tessile,http://dati.beniculturali.it/mibact/luoghi/resource/City/Morgongiori,http://dati.beniculturali.it/mibact/luoghi/resource/Region/Sardegna,39.745674,8.771951,2.60
http://dati.beniculturali.it/mibact/luoghi/resource/CulturalInstituteOrSite/111831,Museo Pietra Viva,http://dati.beniculturali.it/mibact/luoghi/resource/City/Sant_Orsola_Terme,http://dati.beniculturali.it/mibact/luoghi/resource/Region/Trentino-Alto_Adige,46.11551,11.297258,5.00
http://dati.beniculturali.it/mibact/luoghi/resource/CulturalInstituteOrSite/104948,Museo europeo degli studenti,http://dati.beniculturali.it/mibact/luoghi/resource/City/Bologna,http://dati.beniculturali.it/mibact/luoghi/resource/Region/Emilia-Romagna,44.496983,11.352499,5.00
http://dati.beniculturali.it/mibact/luoghi/resource/CulturalInstituteOrSite/100656,Museo diocesano tridentino,http://dati.beniculturali.it/mibact/luoghi/resource/City/Trento,http://dati.beniculturali.it/mibact/luoghi/resource/Region/Trentino-Alto_Adige,46.067196,11.121727,7.00
http://dati.beniculturali.it/mibact/luoghi/resource/CulturalInstituteOrSite/104798,Museo per la storia dell’Università di Pavia,http://dati.beniculturali.it/mibact/luoghi/resource/City/Pavia,http://dati.beniculturali.it/mibact/luoghi/resource/Region/Lombardia,45.186718,9.155904,5.00
http://dati.beniculturali.it/mibact/luoghi/resource/CulturalInstituteOrSite/105007,Antiquarium comunale di Agropoli,http://dati.beniculturali.it/mibact/luoghi/resource/City/Agropoli,http://dati.beniculturali.it/mibact/luoghi/resource/Region/Campania,40.350815,14.985732,2.00
http://dati.beniculturali.it/mibact/luoghi/resource/CulturalInstituteOrSite/100673,Foro romano e collezione archeologica,http://dati.beniculturali.it/mibact/luoghi/resource/City/Assisi,http://dati.beniculturali.it/mibact/luoghi/resource/Region/Umbria,43.071293,12.61425,5.00
http://dati.beniculturali.it/mibact/luoghi/resource/CulturalInstituteOrSite/107152,Museo del presepe - Pinacoteca civica,http://dati.beniculturali.it/mibact/luoghi/resource/City/Imperia,http://dati.beniculturali.it/mibact/luoghi/resource/Region/Liguria,43.875317,8.014442,5.00
http://dati.beniculturali.it/mibact/luoghi/resource/CulturalInstituteOrSite/102080,Museo della Cattedrale di Ferrara,http://dati.beniculturali.it/mibact/luoghi/resource/City/Ferrara,http://dati.beniculturali.it/mibact/luoghi/resource/Region/Emilia-Romagna,44.833675,11.61896,6.00
http://dati.beniculturali.it/mibact/luoghi/resource/CulturalInstituteOrSite/107229,Villa Faravelli. M.A.C.I. - Museo Arte Contemporanea Imperia,http://dati.beniculturali.it/mibact/luoghi/resource/City/Imperia,http://dati.beniculturali.it/mibact/luoghi/resource/Region/Liguria,43.88581,8.028658,6.00
http://dati.beniculturali.it/mibact/luoghi/resource/CulturalInstituteOrSite/103565,Collezione d'arte orientale,http://dati.beniculturali.it/mibact/luoghi/resource/City/Coccaglio,http://dati.beniculturali.it/mibact/luoghi/resource/Region/Lombardia,45.562504,9.98298,6.00
http://dati.beniculturali.it/mibact/luoghi/resource/CulturalInstituteOrSite/20243,Museo nazionale di San Matteo,http://dati.beniculturali.it/mibact/luoghi/resource/City/Pisa,http://dati.beniculturali.it/mibact/luoghi/resource/Region/Toscana,43.71475,10.407454,5.00
http://dati.beniculturali.it/mibact/luoghi/resource/CulturalInstituteOrSite/106495,"Museo archeologico nazionale ""Giorgio Asproni""",http://dati.beniculturali.it/mibact/luoghi/resource/City/Nuoro,http://dati.beniculturali.it/mibact/luoghi/resource/Region/Sardegna,40.321556,9.336588,4.00
http://dati.beniculturali.it/mibact/luoghi/resource/CulturalInstituteOrSite/103609,Museo didattico della Seta,http://dati.beniculturali.it/mibact/luoghi/resource/City/Como,http://dati.beniculturali.it/mibact/luoghi/resource/Region/Lombardia,45.80316,9.094346,10.00
http://dati.beniculturali.it/mibact/luoghi/resource/CulturalInstituteOrSite/100555,Museo della caccia e della pesca - Castel Wolfsthurn,http://dati.beniculturali.it/mibact/luoghi/resource/City/Racines_Ratschings,http://dati.beniculturali.it/mibact/luoghi/resource/Region/Trentino-Alto_Adige,46.881744,11.364578,5.00
http://dati.beniculturali.it/mibact/luoghi/resource/CulturalInstituteOrSite/111323,Museo diocesano di Brugnato,http://dati.beniculturali.it/mibact/luoghi/resource/City/Brugnato,http://dati.beniculturali.it/mibact/luoghi/resource/Region/Liguria,44.27757,9.746514,3.00
http://dati.beniculturali.it/mibact/luoghi/resource/CulturalInstituteOrSite/106313,Museo della Villa San Carlo Borromeo,http://dati.beniculturali.it/mibact/luoghi/resource/City/Senago,http://dati.beniculturali.it/mibact/luoghi/resource/Region/Lombardia,45.5779,9.119067,8.00
http://dati.beniculturali.it/mibact/luoghi/resource/CulturalInstituteOrSite/102163,Museo del Duomo di Fidenza,http://dati.beniculturali.it/mibact/luoghi/resource/City/Fidenza,http://dati.beniculturali.it/mibact/luoghi/resource/Region/Emilia-Romagna,44.86659,10.058329,7.00
http://dati.beniculturali.it/mibact/luoghi/resource/CulturalInstituteOrSite/103697,Museo nazionale della scienza e della tecnologia Leonardo da Vinci,http://dati.beniculturali.it/mibact/luoghi/resource/City/Milano,http://dati.beniculturali.it/mibact/luoghi/resource/Region/Lombardia,45.46302,9.171237,10.00
http://dati.beniculturali.it/mibact/luoghi/resource/CulturalInstituteOrSite/111324,"Esposizione permanente ""Magiche Trasparenze - I Vetri dell’antica Albingaunum""",http://dati.beniculturali.it/mibact/luoghi/resource/City/Albenga,http://dati.beniculturali.it/mibact/luoghi/resource/Region/Liguria,44.048313,8.213232,6.00
http://dati.beniculturali.it/mibact/luoghi/resource/CulturalInstituteOrSite/106892,Museo etnografico e dell’acqua Lavandee,http://dati.beniculturali.it/mibact/luoghi/resource/City/Albese_con_Cassano,http://dati.beniculturali.it/mibact/luoghi/resource/Region/Lombardia,45.79742,9.167686,8.00
http://dati.beniculturali.it/mibact/luoghi/resource/CulturalInstituteOrSite/100677,Pinacoteca comunale di Assisi,http://dati.beniculturali.it/mibact/luoghi/resource/City/Assisi,http://dati.beniculturali.it/mibact/luoghi/resource/Region/Umbria,43.072914,12.609457,3.00
http://dati.beniculturali.it/mibact/luoghi/resource/CulturalInstituteOrSite/100097,Fondazione Museo d'arte dello splendore,http://dati.beniculturali.it/mibact/luoghi/resource/City/Giulianova,http://dati.beniculturali.it/mibact/luoghi/resource/Region/Abruzzo,42.757244,13.952749,3.00
http://dati.beniculturali.it/mibact/luoghi/resource/CulturalInstituteOrSite/20257,Museo nazionale d'Abruzzo dell'Aquila,http://dati.beniculturali.it/mibact/luoghi/resource/City/L_Aquila,http://dati.beniculturali.it/mibact/luoghi/resource/Region/Abruzzo,42.350376,13.38874,7.00
http://dati.beniculturali.it/mibact/luoghi/resource/CulturalInstituteOrSite/104355,Galleria delle ceramiche Acerbo,http://dati.beniculturali.it/mibact/luoghi/resource/City/Loreto_Aprutino,http://dati.beniculturali.it/mibact/luoghi/resource/Region/Abruzzo,42.433186,13.986668,6.00
http://dati.beniculturali.it/mibact/luoghi/resource/CulturalInstituteOrSite/106873,Museo del Parco Alto Garda bresciano - Centro visitatori di Gargnano,http://dati.beniculturali.it/mibact/luoghi/resource/City/Gargnano,http://dati.beniculturali.it/mibact/luoghi/resource/Region/Lombardia,45.658794,10.6017,4.00
http://dati.beniculturali.it/mibact/luoghi/resource/CulturalInstituteOrSite/104273,"Museo demoetnoantropologico della ""Terracotta e della Terra cruda""",http://dati.beniculturali.it/mibact/luoghi/resource/City/Fratte_Rosa,http://dati.beniculturali.it/mibact/luoghi/resource/Region/Marche,43.644707,12.896515,3.00
http://dati.beniculturali.it/mibact/luoghi/resource/CulturalInstituteOrSite/151854,Museo Tattile Varese,http://dati.beniculturali.it/mibact/luoghi/resource/City/Varese,http://dati.beniculturali.it/mibact/luoghi/resource/Region/Lombardia,41.86956,12.568359,6.00
http://dati.beniculturali.it/mibact/luoghi/resource/CulturalInstituteOrSite/100088,Museo civico etnografico di Atri,http://dati.beniculturali.it/mibact/luoghi/resource/City/Atri,http://dati.beniculturali.it/mibact/luoghi/resource/Region/Abruzzo,42.5802,13.981002,1.50
http://dati.beniculturali.it/mibact/luoghi/resource/CulturalInstituteOrSite/111502,Museo civico paleontologico di Matelica,http://dati.beniculturali.it/mibact/luoghi/resource/City/Matelica,http://dati.beniculturali.it/mibact/luoghi/resource/Region/Marche,43.256546,13.00876,3.00
http://dati.beniculturali.it/mibact/luoghi/resource/CulturalInstituteOrSite/20237,"Museo nazionale etrusco ""Pompeo Aria"" e area archeologica di Kainua",http://dati.beniculturali.it/mibact/luoghi/resource/City/Marzabotto,http://dati.beniculturali.it/mibact/luoghi/resource/Region/Emilia-Romagna,44.336773,11.202711,3.00
http://dati.beniculturali.it/mibact/luoghi/resource/CulturalInstituteOrSite/100825,"Museo alpino ""Duca degli Abruzzi""",http://dati.beniculturali.it/mibact/luoghi/resource/City/Courmayeur,http://dati.beniculturali.it/mibact/luoghi/resource/Region/Valle_d_Aosta_Vallee_d_Aoste,45.738888,7.426187,3.00
http://dati.beniculturali.it/mibact/luoghi/resource/CulturalInstituteOrSite/20775,Museo virtuale della scuola medica salernitana,http://dati.beniculturali.it/mibact/luoghi/resource/City/Salerno,http://dati.beniculturali.it/mibact/luoghi/resource/Region/Campania,40.67912,14.759477,3.00
http://dati.beniculturali.it/mibact/luoghi/resource/CulturalInstituteOrSite/105679,Pinacoteca e museo dell’isola di San Lazzaro degli Armeni,http://dati.beniculturali.it/mibact/luoghi/resource/City/Venezia,http://dati.beniculturali.it/mibact/luoghi/resource/Region/Veneto,45.344604,12.29078,6.00
http://dati.beniculturali.it/mibact/luoghi/resource/CulturalInstituteOrSite/100831,Maison Musee Jean-Paul II,http://dati.beniculturali.it/mibact/luoghi/resource/City/Introd,http://dati.beniculturali.it/mibact/luoghi/resource/Region/Valle_d_Aosta_Vallee_d_Aoste,45.738888,7.426187,2.00
http://dati.beniculturali.it/mibact/luoghi/resource/CulturalInstituteOrSite/103583,Fondazione Giacomini Meo Fiorot onlus - Musei Mazzucchelli,http://dati.beniculturali.it/mibact/luoghi/resource/City/Mazzano,http://dati.beniculturali.it/mibact/luoghi/resource/Region/Lombardia,45.493984,10.343604,8.00
http://dati.beniculturali.it/mibact/luoghi/resource/CulturalInstituteOrSite/100208,Museo civico d'arte di Pordenone,http://dati.beniculturali.it/mibact/luoghi/resource/City/Pordenone,http://dati.beniculturali.it/mibact/luoghi/resource/Region/Friuli-Venezia_Giulia,45.954643,12.660142,3.00
http://dati.beniculturali.it/mibact/luoghi/resource/CulturalInstituteOrSite/100149,Museo archeologico nazionale di Muro Lucano,http://dati.beniculturali.it/mibact/luoghi/resource/City/Muro_Lucano,http://dati.beniculturali.it/mibact/luoghi/resource/Region/Basilicata,40.75287,15.488292,4.00
http://dati.beniculturali.it/mibact/luoghi/resource/CulturalInstituteOrSite/103381,Museo Nivola,http://dati.beniculturali.it/mibact/luoghi/resource/City/Orani,http://dati.beniculturali.it/mibact/luoghi/resource/Region/Sardegna,40.24737,9.180878,7.00
http://dati.beniculturali.it/mibact/luoghi/resource/CulturalInstituteOrSite/105979,Complesso Monumentale del Broletto,http://dati.beniculturali.it/mibact/luoghi/resource/City/Novara,http://dati.beniculturali.it/mibact/luoghi/resource/Region/Piemonte,45.446068,8.620557,5.00
http://dati.beniculturali.it/mibact/luoghi/resource/CulturalInstituteOrSite/106671,Centro visita Aleve',http://dati.beniculturali.it/mibact/luoghi/resource/City/Casteldelfino,http://dati.beniculturali.it/mibact/luoghi/resource/Region/Piemonte,44.59063,7.070944,35.00
http://dati.beniculturali.it/mibact/luoghi/resource/CulturalInstituteOrSite/103699,Triennale di Milano - Triennale design museum,http://dati.beniculturali.it/mibact/luoghi/resource/City/Milano,http://dati.beniculturali.it/mibact/luoghi/resource/Region/Lombardia,45.471813,9.173708,12.00
http://dati.beniculturali.it/mibact/luoghi/resource/CulturalInstituteOrSite/103354,Museo archeologico Ferruccio Barreca,http://dati.beniculturali.it/mibact/luoghi/resource/City/Sant_Antioco,http://dati.beniculturali.it/mibact/luoghi/resource/Region/Sardegna,39.0618,8.454679,4.00
http://dati.beniculturali.it/mibact/luoghi/resource/CulturalInstituteOrSite/100230,"Civico museo ""Revoltella"" e galleria d'arte moderna",http://dati.beniculturali.it/mibact/luoghi/resource/City/Trieste,http://dati.beniculturali.it/mibact/luoghi/resource/Region/Friuli-Venezia_Giulia,45.64684,13.763183,7.00
http://dati.beniculturali.it/mibact/luoghi/resource/CulturalInstituteOrSite/104925,Museo ornitologico e di scienze naturali Luigi Scanagatta,http://dati.beniculturali.it/mibact/luoghi/resource/City/Varenna,http://dati.beniculturali.it/mibact/luoghi/resource/Region/Lombardia,46.009422,9.285014,3.00
http://dati.beniculturali.it/mibact/luoghi/resource/CulturalInstituteOrSite/106883,Museo della Barca Lariana,http://dati.beniculturali.it/mibact/luoghi/resource/City/Pianello_del_Lario,http://dati.beniculturali.it/mibact/luoghi/resource/Region/Lombardia,46.10376,9.278148,12.00
http://dati.beniculturali.it/mibact/luoghi/resource/CulturalInstituteOrSite/20759,Museo dell'Opificio delle Pietre Dure,http://dati.beniculturali.it/mibact/luoghi/resource/City/Firenze,http://dati.beniculturali.it/mibact/luoghi/resource/Region/Toscana,43.77608,11.258888,6.00
http://dati.beniculturali.it/mibact/luoghi/resource/CulturalInstituteOrSite/20532,Museo di Casa Romei,http://dati.beniculturali.it/mibact/luoghi/resource/City/Ferrara,http://dati.beniculturali.it/mibact/luoghi/resource/Region/Emilia-Romagna,44.833336,11.625979,5.00
http://dati.beniculturali.it/mibact/luoghi/resource/CulturalInstituteOrSite/104043,Civica raccolta di Palazzo Fossa Mancini,http://dati.beniculturali.it/mibact/luoghi/resource/City/Castelplanio,http://dati.beniculturali.it/mibact/luoghi/resource/Region/Marche,43.494602,13.081665,2.50
http://dati.beniculturali.it/mibact/luoghi/resource/CulturalInstituteOrSite/101882,Museo mineralogico campano,http://dati.beniculturali.it/mibact/luoghi/resource/City/Vico_Equense,http://dati.beniculturali.it/mibact/luoghi/resource/Region/Campania,40.662796,14.425933,2.50
http://dati.beniculturali.it/mibact/luoghi/resource/CulturalInstituteOrSite/100058,Museo diocesano di Ortona,http://dati.beniculturali.it/mibact/luoghi/resource/City/Ortona,http://dati.beniculturali.it/mibact/luoghi/resource/Region/Abruzzo,42.35691,14.404914,3.00
http://dati.beniculturali.it/mibact/luoghi/resource/CulturalInstituteOrSite/20316,Museo archeologico nazionale delle Marche,http://dati.beniculturali.it/mibact/luoghi/resource/City/Ancona,http://dati.beniculturali.it/mibact/luoghi/resource/Region/Marche,43.623165,13.510938,5.00
http://dati.beniculturali.it/mibact/luoghi/resource/CulturalInstituteOrSite/107184,"Museo diocesano di arte sacra ""Alta Valle Arroscia""",http://dati.beniculturali.it/mibact/luoghi/resource/City/Pieve_di_Teco,http://dati.beniculturali.it/mibact/luoghi/resource/Region/Liguria,44.046562,7.914992,4.00
http://dati.beniculturali.it/mibact/luoghi/resource/CulturalInstituteOrSite/102187,Rocca Meli Lupi,http://dati.beniculturali.it/mibact/luoghi/resource/City/Soragna,http://dati.beniculturali.it/mibact/luoghi/resource/Region/Emilia-Romagna,44.927135,10.12222,9.00
http://dati.beniculturali.it/mibact/luoghi/resource/CulturalInstituteOrSite/101148,Museo civico di storia naturale di Verona,http://dati.beniculturali.it/mibact/luoghi/resource/City/Verona,http://dati.beniculturali.it/mibact/luoghi/resource/Region/Veneto,45.43847,11.002173,4.50
http://dati.beniculturali.it/mibact/luoghi/resource/CulturalInstituteOrSite/101145,Museo archeologico nazionale di Verona,http://dati.beniculturali.it/mibact/luoghi/resource/City/Verona,http://dati.beniculturali.it/mibact/luoghi/resource/Region/Veneto,45.441967,11.002617,5.00
http://dati.beniculturali.it/mibact/luoghi/resource/CulturalInstituteOrSite/20193,Museo nazionale del Paleolitico di Isernia,http://dati.beniculturali.it/mibact/luoghi/resource/City/Isernia,http://dati.beniculturali.it/mibact/luoghi/resource/Region/Molise,41.59205,14.240475,6.00
http://dati.beniculturali.it/mibact/luoghi/resource/CulturalInstituteOrSite/103339,Museo del carbone,http://dati.beniculturali.it/mibact/luoghi/resource/City/Carbonia,http://dati.beniculturali.it/mibact/luoghi/resource/Region/Sardegna,39.15764,8.540161,8.00
http://dati.beniculturali.it/mibact/luoghi/resource/CulturalInstituteOrSite/20329,Museo nazionale e area archeologica di Quarto d'Altino,http://dati.beniculturali.it/mibact/luoghi/resource/City/Quarto_d_Altino,http://dati.beniculturali.it/mibact/luoghi/resource/Region/Veneto,45.541496,12.398465,5.00
http://dati.beniculturali.it/mibact/luoghi/resource/CulturalInstituteOrSite/101880,Museo Correale di Terranova,http://dati.beniculturali.it/mibact/luoghi/resource/City/Sorrento,http://dati.beniculturali.it/mibact/luoghi/resource/Region/Campania,40.628754,14.380715,15.00
http://dati.beniculturali.it/mibact/luoghi/resource/CulturalInstituteOrSite/103399,"Civico museo archeologico ""Giovanni Marongiu""",http://dati.beniculturali.it/mibact/luoghi/resource/City/Cabras,http://dati.beniculturali.it/mibact/luoghi/resource/Region/Sardegna,39.932205,8.533907,4.00
http://dati.beniculturali.it/mibact/luoghi/resource/CulturalInstituteOrSite/103652,Museo etnografico dell'Alta Brianza,http://dati.beniculturali.it/mibact/luoghi/resource/City/Galbiate,http://dati.beniculturali.it/mibact/luoghi/resource/Region/Lombardia,45.818035,9.371511,2.00
http://dati.beniculturali.it/mibact/luoghi/resource/CulturalInstituteOrSite/100724,Museo civico e diocesano di Norcia,http://dati.beniculturali.it/mibact/luoghi/resource/City/Norcia,http://dati.beniculturali.it/mibact/luoghi/resource/Region/Umbria,42.79241,13.092439,6.00
http://dati.beniculturali.it/mibact/luoghi/resource/CulturalInstituteOrSite/103574,Civico museo archelogico della Valle Sabbia,http://dati.beniculturali.it/mibact/luoghi/resource/City/Gavardo,http://dati.beniculturali.it/mibact/luoghi/resource/Region/Lombardia,45.584717,10.438772,4.00
http://dati.beniculturali.it/mibact/luoghi/resource/CulturalInstituteOrSite/100414,Museo dell'olivo di Imperia,http://dati.beniculturali.it/mibact/luoghi/resource/City/Imperia,http://dati.beniculturali.it/mibact/luoghi/resource/Region/Liguria,43.89279,8.038424,5.00
http://dati.beniculturali.it/mibact/luoghi/resource/CulturalInstituteOrSite/104041,Museo internazionale della fisarmonica,http://dati.beniculturali.it/mibact/luoghi/resource/City/Castelfidardo,http://dati.beniculturali.it/mibact/luoghi/resource/Region/Marche,43.46462,13.546429,5.00
http://dati.beniculturali.it/mibact/luoghi/resource/CulturalInstituteOrSite/101045,Palazzo ducale di Venezia,http://dati.beniculturali.it/mibact/luoghi/resource/City/Venezia,http://dati.beniculturali.it/mibact/luoghi/resource/Region/Veneto,45.433933,12.337128,25.00
http://dati.beniculturali.it/mibact/luoghi/resource/CulturalInstituteOrSite/101490,Museo civico Città di Cave - Museo Lorenzo Ferri,http://dati.beniculturali.it/mibact/luoghi/resource/City/Cave,http://dati.beniculturali.it/mibact/luoghi/resource/Region/Lazio,41.81792,12.929548,3.00
http://dati.beniculturali.it/mibact/luoghi/resource/CulturalInstituteOrSite/103736,Museo civico di Canneto sull'Oglio,http://dati.beniculturali.it/mibact/luoghi/resource/City/Canneto_sull_Oglio,http://dati.beniculturali.it/mibact/luoghi/resource/Region/Lombardia,45.14889,10.378864,3.60
http://dati.beniculturali.it/mibact/luoghi/resource/CulturalInstituteOrSite/107779,Museo archeologico di Venezia,http://dati.beniculturali.it/mibact/luoghi/resource/City/Venezia,http://dati.beniculturali.it/mibact/luoghi/resource/Region/Veneto,45.433483,12.337797,30.00
http://dati.beniculturali.it/mibact/luoghi/resource/CulturalInstituteOrSite/123004,Museo nazionale di archeologia del mare,http://dati.beniculturali.it/mibact/luoghi/resource/City/Caorle,http://dati.beniculturali.it/mibact/luoghi/resource/Region/Veneto,45.605137,12.878284,6.00
http://dati.beniculturali.it/mibact/luoghi/resource/CulturalInstituteOrSite/101429,Museo della città e del territorio,http://dati.beniculturali.it/mibact/luoghi/resource/City/Cori,http://dati.beniculturali.it/mibact/luoghi/resource/Region/Lazio,41.711224,12.832876,5.00
http://dati.beniculturali.it/mibact/luoghi/resource/CulturalInstituteOrSite/111958,Museo delle miniere - Miniere di Predoi,http://dati.beniculturali.it/mibact/luoghi/resource/City/Predoi_Prettau,http://dati.beniculturali.it/mibact/luoghi/resource/Region/Trentino-Alto_Adige,47.03785,12.103138,10.00
http://dati.beniculturali.it/mibact/luoghi/resource/CulturalInstituteOrSite/20321,Museo archeologico nazionale “Gaio Cilnio Mecenate”,http://dati.beniculturali.it/mibact/luoghi/resource/City/Arezzo,http://dati.beniculturali.it/mibact/luoghi/resource/Region/Toscana,43.460686,11.879376,6.00
http://dati.beniculturali.it/mibact/luoghi/resource/CulturalInstituteOrSite/20228,"Museo preistorico dei ""Balzi Rossi"" e zona archeologica",http://dati.beniculturali.it/mibact/luoghi/resource/City/Ventimiglia,http://dati.beniculturali.it/mibact/luoghi/resource/Region/Liguria,43.7838,7.53427,4.00
http://dati.beniculturali.it/mibact/luoghi/resource/CulturalInstituteOrSite/102034,Antiquarium comunale di Cesenatico,http://dati.beniculturali.it/mibact/luoghi/resource/City/Cesenatico,http://dati.beniculturali.it/mibact/luoghi/resource/Region/Emilia-Romagna,44.19879,12.3944,2.00
http://dati.beniculturali.it/mibact/luoghi/resource/CulturalInstituteOrSite/101939,Museo della comunicazione G. Pelagalli - Mille voci...mille suoni,http://dati.beniculturali.it/mibact/luoghi/resource/City/Bologna,http://dati.beniculturali.it/mibact/luoghi/resource/Region/Emilia-Romagna,44.500675,11.320119,5.00
http://dati.beniculturali.it/mibact/luoghi/resource/CulturalInstituteOrSite/104105,Museo malacologico piceno,http://dati.beniculturali.it/mibact/luoghi/resource/City/Cupra_Marittima,http://dati.beniculturali.it/mibact/luoghi/resource/Region/Marche,43.02773,13.858135,7.50
http://dati.beniculturali.it/mibact/luoghi/resource/CulturalInstituteOrSite/103777,Museo civico della fisarmonica Mariano Dallapè,http://dati.beniculturali.it/mibact/luoghi/resource/City/Stradella,http://dati.beniculturali.it/mibact/luoghi/resource/Region/Lombardia,45.07508,9.2961,4.00
http://dati.beniculturali.it/mibact/luoghi/resource/CulturalInstituteOrSite/100547,Museo provinciale del turismo - Castel Trauttmansdorff,http://dati.beniculturali.it/mibact/luoghi/resource/City/Merano_Meran,http://dati.beniculturali.it/mibact/luoghi/resource/Region/Trentino-Alto_Adige,46.660324,11.182743,11.00
http://dati.beniculturali.it/mibact/luoghi/resource/CulturalInstituteOrSite/102375,Centro visitatori del Corpo forestale dello Stato,http://dati.beniculturali.it/mibact/luoghi/resource/City/Monte_Sant_Angelo,http://dati.beniculturali.it/mibact/luoghi/resource/Region/Puglia,41.718185,15.875957,1.20
http://dati.beniculturali.it/mibact/luoghi/resource/CulturalInstituteOrSite/101582,Museo laboratorio della mente,http://dati.beniculturali.it/mibact/luoghi/resource/City/Roma,http://dati.beniculturali.it/mibact/luoghi/resource/Region/Lazio,41.940712,12.419101,7.00
http://dati.beniculturali.it/mibact/luoghi/resource/CulturalInstituteOrSite/100175,Museo di documentazione della civiltà contadina friulana di Colmello di Grotta,http://dati.beniculturali.it/mibact/luoghi/resource/City/Farra_d_Isonzo,http://dati.beniculturali.it/mibact/luoghi/resource/Region/Friuli-Venezia_Giulia,45.91263,13.536219,4.00
http://dati.beniculturali.it/mibact/luoghi/resource/CulturalInstituteOrSite/103922,Ecomuseo: Museo della bonifica di Argenta,http://dati.beniculturali.it/mibact/luoghi/resource/City/Argenta,http://dati.beniculturali.it/mibact/luoghi/resource/Region/Emilia-Romagna,44.61673,11.81795,4.00
http://dati.beniculturali.it/mibact/luoghi/resource/CulturalInstituteOrSite/104396,Palazzo Tursi,http://dati.beniculturali.it/mibact/luoghi/resource/City/Genova,http://dati.beniculturali.it/mibact/luoghi/resource/Region/Liguria,44.41111,8.932963,9.00
http://dati.beniculturali.it/mibact/luoghi/resource/CulturalInstituteOrSite/103463,Quadreria Spano,http://dati.beniculturali.it/mibact/luoghi/resource/City/Ploaghe,http://dati.beniculturali.it/mibact/luoghi/resource/Region/Sardegna,40.66616,8.748956,2.50
http://dati.beniculturali.it/mibact/luoghi/resource/CulturalInstituteOrSite/102367,Museo civico di Foggia,http://dati.beniculturali.it/mibact/luoghi/resource/City/Foggia,http://dati.beniculturali.it/mibact/luoghi/resource/Region/Puglia,41.4651,15.545029,5.00
http://dati.beniculturali.it/mibact/luoghi/resource/CulturalInstituteOrSite/20787,Museo archeologico nazionale di Fratta Polesine (barchessa di Villa Badoer),http://dati.beniculturali.it/mibact/luoghi/resource/City/Fratta_Polesine,http://dati.beniculturali.it/mibact/luoghi/resource/Region/Veneto,45.030422,11.640752,5.00
http://dati.beniculturali.it/mibact/luoghi/resource/CulturalInstituteOrSite/103917,Musei civici di Palazzo Farnese,http://dati.beniculturali.it/mibact/luoghi/resource/City/Piacenza,http://dati.beniculturali.it/mibact/luoghi/resource/Region/Emilia-Romagna,45.055412,9.695262,8.00
http://dati.beniculturali.it/mibact/luoghi/resource/CulturalInstituteOrSite/121899,Gallerie d'Italia,http://dati.beniculturali.it/mibact/luoghi/resource/City/Milano,http://dati.beniculturali.it/mibact/luoghi/resource/Region/Lombardia,45.46735,9.19004,10.00
http://dati.beniculturali.it/mibact/luoghi/resource/CulturalInstituteOrSite/103647,Civico museo setificio Monti,http://dati.beniculturali.it/mibact/luoghi/resource/City/Abbadia_Lariana,http://dati.beniculturali.it/mibact/luoghi/resource/Region/Lombardia,45.900803,9.331989,5.00
http://dati.beniculturali.it/mibact/luoghi/resource/CulturalInstituteOrSite/101016,MUB - Museo della bonifica,http://dati.beniculturali.it/mibact/luoghi/resource/City/San_Dona_di_Piave,http://dati.beniculturali.it/mibact/luoghi/resource/Region/Veneto,45.624367,12.583936,5.00
http://dati.beniculturali.it/mibact/luoghi/resource/CulturalInstituteOrSite/103325,Museo archeologico di Villasimius,http://dati.beniculturali.it/mibact/luoghi/resource/City/Villasimius,http://dati.beniculturali.it/mibact/luoghi/resource/Region/Sardegna,39.14376,9.518445,3.00
http://dati.beniculturali.it/mibact/luoghi/resource/CulturalInstituteOrSite/159049,Museo Internazionale delle Guerre Mondiali (MIGM),http://dati.beniculturali.it/mibact/luoghi/resource/City/Rocchetta_a_Volturno,http://dati.beniculturali.it/mibact/luoghi/resource/Region/Molise,41.86956,12.568359,5.00
http://dati.beniculturali.it/mibact/luoghi/resource/CulturalInstituteOrSite/100010,"Museo civico archeologico ""Antonio de Nino""",http://dati.beniculturali.it/mibact/luoghi/resource/City/Corfinio,http://dati.beniculturali.it/mibact/luoghi/resource/Region/Abruzzo,42.12461,13.843567,5.00
http://dati.beniculturali.it/mibact/luoghi/resource/CulturalInstituteOrSite/103726,Museo e Tesoro del Duomo di Monza,http://dati.beniculturali.it/mibact/luoghi/resource/City/Monza,http://dati.beniculturali.it/mibact/luoghi/resource/Region/Lombardia,45.58369,9.276526,8.00
http://dati.beniculturali.it/mibact/luoghi/resource/CulturalInstituteOrSite/104317,Museo delle terre marchigiane. Collezione Straccini,http://dati.beniculturali.it/mibact/luoghi/resource/City/San_Lorenzo_in_Campo,http://dati.beniculturali.it/mibact/luoghi/resource/Region/Marche,43.600586,12.944288,3.00
http://dati.beniculturali.it/mibact/luoghi/resource/CulturalInstituteOrSite/103776,Museo degli Argenti Contemporanei (MAC); Museo degli Ornamenti Contemporanei (MOC); Museo per le Arti Tessili (MAT); Museo per la Grafica d'Arte (MAG); Museo per le Arti Decorative e il Design (MADD); Museo della Moda (MU-MO),http://dati.beniculturali.it/mibact/luoghi/resource/City/Sartirana_Lomellina,http://dati.beniculturali.it/mibact/luoghi/resource/Region/Lombardia,45.115887,8.662758,3.00
http://dati.beniculturali.it/mibact/luoghi/resource/CulturalInstituteOrSite/20538,Musei del Bargello - Cappelle Medicee,http://dati.beniculturali.it/mibact/luoghi/resource/City/Firenze,http://dati.beniculturali.it/mibact/luoghi/resource/Region/Toscana,43.775204,11.253117,9.00
http://dati.beniculturali.it/mibact/luoghi/resource/CulturalInstituteOrSite/100584,Museo del pianoforte antico - Accademia internazionale di interpretazione musicale su strumenti d'epoca,http://dati.beniculturali.it/mibact/luoghi/resource/City/Ala,http://dati.beniculturali.it/mibact/luoghi/resource/Region/Trentino-Alto_Adige,45.757267,11.003425,20.00
http://dati.beniculturali.it/mibact/luoghi/resource/CulturalInstituteOrSite/133705,Fondazione Merz,http://dati.beniculturali.it/mibact/luoghi/resource/City/Torino,http://dati.beniculturali.it/mibact/luoghi/resource/Region/Piemonte,45.06197,7.642983,6.00
http://dati.beniculturali.it/mibact/luoghi/resource/CulturalInstituteOrSite/147422,Musel - Museo Archeologico e della Città,http://dati.beniculturali.it/mibact/luoghi/resource/City/Sestri_Levante,http://dati.beniculturali.it/mibact/luoghi/resource/Region/Liguria,41.86956,12.568359,5.00
http://dati.beniculturali.it/mibact/luoghi/resource/CulturalInstituteOrSite/102928,Museo degli innocenti,http://dati.beniculturali.it/mibact/luoghi/resource/City/Firenze,http://dati.beniculturali.it/mibact/luoghi/resource/Region/Toscana,43.77545,11.260107,8.00
http://dati.beniculturali.it/mibact/luoghi/resource/CulturalInstituteOrSite/108132,"Museo paleontologico ""Luigi Boldrini"" di Pietrafitta",http://dati.beniculturali.it/mibact/luoghi/resource/City/Piegaro,http://dati.beniculturali.it/mibact/luoghi/resource/Region/Umbria,42.99252,12.211722,4.00
http://dati.beniculturali.it/mibact/luoghi/resource/CulturalInstituteOrSite/103557,Santa Giulia - Museo della città,http://dati.beniculturali.it/mibact/luoghi/resource/City/Brescia,http://dati.beniculturali.it/mibact/luoghi/resource/Region/Lombardia,45.539433,10.227929,10.00
http://dati.beniculturali.it/mibact/luoghi/resource/CulturalInstituteOrSite/20149,Musei nazionali di Siena - Pinacoteca nazionale di Siena,http://dati.beniculturali.it/mibact/luoghi/resource/City/Siena,http://dati.beniculturali.it/mibact/luoghi/resource/Region/Toscana,43.315662,11.330431,6.00
http://dati.beniculturali.it/mibact/luoghi/resource/CulturalInstituteOrSite/103718,Museo teatrale alla Scala,http://dati.beniculturali.it/mibact/luoghi/resource/City/Milano,http://dati.beniculturali.it/mibact/luoghi/resource/Region/Lombardia,45.467037,9.18923,12.00
http://dati.beniculturali.it/mibact/luoghi/resource/CulturalInstituteOrSite/103418,"Collezione permanente ""Pinacoteca Antonio Atza""",http://dati.beniculturali.it/mibact/luoghi/resource/City/Bosa,http://dati.beniculturali.it/mibact/luoghi/resource/Region/Sardegna,40.295692,8.50229,4.50
http://dati.beniculturali.it/mibact/luoghi/resource/CulturalInstituteOrSite/110900,Complesso museale Santa Maria delle Anime del Purgatorio ad Arco,http://dati.beniculturali.it/mibact/luoghi/resource/City/Napoli,http://dati.beniculturali.it/mibact/luoghi/resource/Region/Campania,40.8505,14.255869,3.00
http://dati.beniculturali.it/mibact/luoghi/resource/CulturalInstituteOrSite/20330,Museo archeologico nazionale di Adria,http://dati.beniculturali.it/mibact/luoghi/resource/City/Adria,http://dati.beniculturali.it/mibact/luoghi/resource/Region/Veneto,45.049057,12.054931,6.00
http://dati.beniculturali.it/mibact/luoghi/resource/CulturalInstituteOrSite/100379,Raccolte Frugone,http://dati.beniculturali.it/mibact/luoghi/resource/City/Genova,http://dati.beniculturali.it/mibact/luoghi/resource/Region/Liguria,44.381805,9.0474,5.00
http://dati.beniculturali.it/mibact/luoghi/resource/CulturalInstituteOrSite/103735,Museo civico Goffredo Bellini,http://dati.beniculturali.it/mibact/luoghi/resource/City/Asola,http://dati.beniculturali.it/mibact/luoghi/resource/Region/Lombardia,45.221527,10.412498,3.00
http://dati.beniculturali.it/mibact/luoghi/resource/CulturalInstituteOrSite/103436,Museo etnografico Galluras. Il museo della femina agabbadora,http://dati.beniculturali.it/mibact/luoghi/resource/City/Luras,http://dati.beniculturali.it/mibact/luoghi/resource/Region/Sardegna,40.93554,9.175155,5.00
http://dati.beniculturali.it/mibact/luoghi/resource/CulturalInstituteOrSite/20268,Castello Piccolomini - Collezione Torlonia e Museo d'arte sacra della Marsica,http://dati.beniculturali.it/mibact/luoghi/resource/City/Celano,http://dati.beniculturali.it/mibact/luoghi/resource/Region/Abruzzo,42.0845,13.5455,5.00
http://dati.beniculturali.it/mibact/luoghi/resource/CulturalInstituteOrSite/100239,"Civico museo teatrale ""Carlo Schmidl""",http://dati.beniculturali.it/mibact/luoghi/resource/City/Trieste,http://dati.beniculturali.it/mibact/luoghi/resource/Region/Friuli-Venezia_Giulia,45.652912,13.77056,4.00
http://dati.beniculturali.it/mibact/luoghi/resource/CulturalInstituteOrSite/102135,"Museo geologico ""G. Cortesi""",http://dati.beniculturali.it/mibact/luoghi/resource/City/Castell_Arquato,http://dati.beniculturali.it/mibact/luoghi/resource/Region/Emilia-Romagna,44.851852,9.86821,3.50
http://dati.beniculturali.it/mibact/luoghi/resource/CulturalInstituteOrSite/100005,Museo civico aufidenate,http://dati.beniculturali.it/mibact/luoghi/resource/City/Castel_di_Sangro,http://dati.beniculturali.it/mibact/luoghi/resource/Region/Abruzzo,41.784336,14.108263,2.00
http://dati.beniculturali.it/mibact/luoghi/resource/CulturalInstituteOrSite/100437,Museo del sigillo,http://dati.beniculturali.it/mibact/luoghi/resource/City/La_Spezia,http://dati.beniculturali.it/mibact/luoghi/resource/Region/Liguria,44.10699,9.818346,3.00
http://dati.beniculturali.it/mibact/luoghi/resource/CulturalInstituteOrSite/100720,Complesso museale di San Francesco (Montone) di Montone (fiume),http://dati.beniculturali.it/mibact/luoghi/resource/City/Montone,http://dati.beniculturali.it/mibact/luoghi/resource/Region/Umbria,43.364174,12.326817,5.00
http://dati.beniculturali.it/mibact/luoghi/resource/CulturalInstituteOrSite/20303,Museo archeologico nazionale di Sarsina,http://dati.beniculturali.it/mibact/luoghi/resource/City/Sarsina,http://dati.beniculturali.it/mibact/luoghi/resource/Region/Emilia-Romagna,43.91969,12.143894,3.00
http://dati.beniculturali.it/mibact/luoghi/resource/CulturalInstituteOrSite/104296,"Museo dei ""Bronzi dorati e della Città di Pergola""",http://dati.beniculturali.it/mibact/luoghi/resource/City/Pergola,http://dati.beniculturali.it/mibact/luoghi/resource/Region/Marche,43.563015,12.836208,6.00
http://dati.beniculturali.it/mibact/luoghi/resource/CulturalInstituteOrSite/102033,Museo della Marineria dell'alto e medio Adriatico,http://dati.beniculturali.it/mibact/luoghi/resource/City/Cesenatico,http://dati.beniculturali.it/mibact/luoghi/resource/Region/Emilia-Romagna,44.19879,12.3944,2.00
http://dati.beniculturali.it/mibact/luoghi/resource/CulturalInstituteOrSite/104045,"Civica raccolta d’arte ""C. Ridolfi""",http://dati.beniculturali.it/mibact/luoghi/resource/City/Corinaldo,http://dati.beniculturali.it/mibact/luoghi/resource/Region/Marche,43.650143,13.047107,2.50
http://dati.beniculturali.it/mibact/luoghi/resource/CulturalInstituteOrSite/101467,Museo civico delle tradizioni popolari,http://dati.beniculturali.it/mibact/luoghi/resource/City/Micigliano,http://dati.beniculturali.it/mibact/luoghi/resource/Region/Lazio,42.45232,13.052723,1.00
http://dati.beniculturali.it/mibact/luoghi/resource/CulturalInstituteOrSite/111969,Casa museo - Haus Von Prukk,http://dati.beniculturali.it/mibact/luoghi/resource/City/Luserna,http://dati.beniculturali.it/mibact/luoghi/resource/Region/Trentino-Alto_Adige,45.922123,11.322682,2.00
http://dati.beniculturali.it/mibact/luoghi/resource/CulturalInstituteOrSite/20401,Galleria dell'Accademia di Firenze,http://dati.beniculturali.it/mibact/luoghi/resource/City/Firenze,http://dati.beniculturali.it/mibact/luoghi/resource/Region/Toscana,43.776913,11.258659,12.00
http://dati.beniculturali.it/mibact/luoghi/resource/CulturalInstituteOrSite/20238,Museo nazionale etrusco di Villa Giulia,http://dati.beniculturali.it/mibact/luoghi/resource/City/Roma,http://dati.beniculturali.it/mibact/luoghi/resource/Region/Lazio,41.918636,12.476265,12.00
http://dati.beniculturali.it/mibact/luoghi/resource/CulturalInstituteOrSite/106788,Pinacoteca di Brera,http://dati.beniculturali.it/mibact/luoghi/resource/City/Milano,http://dati.beniculturali.it/mibact/luoghi/resource/Region/Lombardia,45.471943,9.187683,15.00
http://dati.beniculturali.it/mibact/luoghi/resource/CulturalInstituteOrSite/102081,Musei civici di arte antica - Palazzina Marfisa,http://dati.beniculturali.it/mibact/luoghi/resource/City/Ferrara,http://dati.beniculturali.it/mibact/luoghi/resource/Region/Emilia-Romagna,44.83335,11.629614,4.00
http://dati.beniculturali.it/mibact/luoghi/resource/CulturalInstituteOrSite/101309,Galleria regionale della Sicilia di Palazzo Abatellis,http://dati.beniculturali.it/mibact/luoghi/resource/City/Palermo,http://dati.beniculturali.it/mibact/luoghi/resource/Region/Sicilia,38.1165,13.370448,8.00
http://dati.beniculturali.it/mibact/luoghi/resource/CulturalInstituteOrSite/108198,Museo di Palazzo Grimani,http://dati.beniculturali.it/mibact/luoghi/resource/City/Venezia,http://dati.beniculturali.it/mibact/luoghi/resource/Region/Veneto,45.43707,12.342447,14.00
http://dati.beniculturali.it/mibact/luoghi/resource/CulturalInstituteOrSite/20392,Palazzo Ducale di Urbino - Galleria nazionale delle Marche,http://dati.beniculturali.it/mibact/luoghi/resource/City/Urbino,http://dati.beniculturali.it/mibact/luoghi/resource/Region/Marche,43.724155,12.636886,10.00
http://dati.beniculturali.it/mibact/luoghi/resource/CulturalInstituteOrSite/100361,Wolfsoniana,http://dati.beniculturali.it/mibact/luoghi/resource/City/Genova,http://dati.beniculturali.it/mibact/luoghi/resource/Region/Liguria,44.381683,9.044312,5.00
http://dati.beniculturali.it/mibact/luoghi/resource/CulturalInstituteOrSite/111849,Museo multimediale della Casa Rossa Ximenes,http://dati.beniculturali.it/mibact/luoghi/resource/City/Castiglione_della_Pescaia,http://dati.beniculturali.it/mibact/luoghi/resource/Region/Toscana,42.763893,10.87502,3.00
http://dati.beniculturali.it/mibact/luoghi/resource/CulturalInstituteOrSite/103212,Museo dello Spedale del Ceppo,http://dati.beniculturali.it/mibact/luoghi/resource/City/Pistoia,http://dati.beniculturali.it/mibact/luoghi/resource/Region/Toscana,43.930668,10.92003,3.50
http://dati.beniculturali.it/mibact/luoghi/resource/CulturalInstituteOrSite/106217,Museo civico archeologico  di Conversano,http://dati.beniculturali.it/mibact/luoghi/resource/City/Conversano,http://dati.beniculturali.it/mibact/luoghi/resource/Region/Puglia,40.96791,17.115477,5.00
http://dati.beniculturali.it/mibact/luoghi/resource/CulturalInstituteOrSite/105075,MUSA - Museo storico ambientale,http://dati.beniculturali.it/mibact/luoghi/resource/City/San_Giorgio_di_Pesaro,http://dati.beniculturali.it/mibact/luoghi/resource/Region/Marche,43.857975,12.861238,1.00
http://dati.beniculturali.it/mibact/luoghi/resource/CulturalInstituteOrSite/102116,Museo della Repubblica partigiana,http://dati.beniculturali.it/mibact/luoghi/resource/City/Montefiorino,http://dati.beniculturali.it/mibact/luoghi/resource/Region/Emilia-Romagna,44.351406,10.623122,5.00
http://dati.beniculturali.it/mibact/luoghi/resource/CulturalInstituteOrSite/20724,Museo archeologico di Sala Consilina,http://dati.beniculturali.it/mibact/luoghi/resource/City/Sala_Consilina,http://dati.beniculturali.it/mibact/luoghi/resource/Region/Campania,40.388275,15.605989,6.00
http://dati.beniculturali.it/mibact/luoghi/resource/CulturalInstituteOrSite/100085,"Pinacoteca dantesca ""F. Bellonzi""",http://dati.beniculturali.it/mibact/luoghi/resource/City/Torre_de__Passeri,http://dati.beniculturali.it/mibact/luoghi/resource/Region/Abruzzo,42.24214,13.925671,3.00
http://dati.beniculturali.it/mibact/luoghi/resource/CulturalInstituteOrSite/103423,"Casa museo della tecnologia contadina ""Tiu Virgiliu""",http://dati.beniculturali.it/mibact/luoghi/resource/City/Suni,http://dati.beniculturali.it/mibact/luoghi/resource/Region/Sardegna,40.279198,8.547974,3.00
http://dati.beniculturali.it/mibact/luoghi/resource/CulturalInstituteOrSite/105950,Centro Musei delle scienze naturali,http://dati.beniculturali.it/mibact/luoghi/resource/City/Napoli,http://dati.beniculturali.it/mibact/luoghi/resource/Region/Campania,40.845478,14.256644,2.50
http://dati.beniculturali.it/mibact/luoghi/resource/CulturalInstituteOrSite/103355,"Museo etnografico ""Su magasinu' e su binu""",http://dati.beniculturali.it/mibact/luoghi/resource/City/Sant_Antioco,http://dati.beniculturali.it/mibact/luoghi/resource/Region/Sardegna,39.070965,8.449739,2.50
http://dati.beniculturali.it/mibact/luoghi/resource/CulturalInstituteOrSite/100448,Museo navale romano,http://dati.beniculturali.it/mibact/luoghi/resource/City/Albenga,http://dati.beniculturali.it/mibact/luoghi/resource/Region/Liguria,44.048702,8.212646,6.00
http://dati.beniculturali.it/mibact/luoghi/resource/CulturalInstituteOrSite/102944,Museo Marino Marini di Firenze,http://dati.beniculturali.it/mibact/luoghi/resource/City/Firenze,http://dati.beniculturali.it/mibact/luoghi/resource/Region/Toscana,43.77207,11.249839,10.00
http://dati.beniculturali.it/mibact/luoghi/resource/CulturalInstituteOrSite/103963,Museo della civiltà contadina Valle dell’Aniene,http://dati.beniculturali.it/mibact/luoghi/resource/City/Roviano,http://dati.beniculturali.it/mibact/luoghi/resource/Region/Lazio,42.026226,12.993674,2.00
http://dati.beniculturali.it/mibact/luoghi/resource/CulturalInstituteOrSite/106854,Casa natale di Gaetano Donizetti,http://dati.beniculturali.it/mibact/luoghi/resource/City/Bergamo,http://dati.beniculturali.it/mibact/luoghi/resource/Region/Lombardia,45.706303,9.656134,3.00
http://dati.beniculturali.it/mibact/luoghi/resource/CulturalInstituteOrSite/103322,Centro socio-culturale di Via Colletta,http://dati.beniculturali.it/mibact/luoghi/resource/City/Sinnai,http://dati.beniculturali.it/mibact/luoghi/resource/Region/Sardegna,39.298264,9.20459,2.00
http://dati.beniculturali.it/mibact/luoghi/resource/CulturalInstituteOrSite/102161,Museo del salame di Felino,http://dati.beniculturali.it/mibact/luoghi/resource/City/Felino,http://dati.beniculturali.it/mibact/luoghi/resource/Region/Emilia-Romagna,44.662872,10.223856,5.00
http://dati.beniculturali.it/mibact/luoghi/resource/CulturalInstituteOrSite/20323,Museo archeologico nazionale dell'Umbria,http://dati.beniculturali.it/mibact/luoghi/resource/City/Perugia,http://dati.beniculturali.it/mibact/luoghi/resource/Region/Umbria,43.107105,12.391884,5.00
http://dati.beniculturali.it/mibact/luoghi/resource/CulturalInstituteOrSite/101418,"Museo civico preistorico ""Pietro Fedele""",http://dati.beniculturali.it/mibact/luoghi/resource/City/Pofi,http://dati.beniculturali.it/mibact/luoghi/resource/Region/Lazio,-0.000601,0.0103,5.00
http://dati.beniculturali.it/mibact/luoghi/resource/CulturalInstituteOrSite/104110,"Polo museale Palazzo dei Priori. Pinacoteca e sezione archeologica ""Fermo dai Villanoviani ai Piceni""",http://dati.beniculturali.it/mibact/luoghi/resource/City/Fermo,http://dati.beniculturali.it/mibact/luoghi/resource/Region/Marche,43.1616,13.718263,7.50
http://dati.beniculturali.it/mibact/luoghi/resource/CulturalInstituteOrSite/20258,Museo archeologico nazionale Concordiese di Portogruaro,http://dati.beniculturali.it/mibact/luoghi/resource/City/Portogruaro,http://dati.beniculturali.it/mibact/luoghi/resource/Region/Veneto,45.77539,12.835412,6.00
http://dati.beniculturali.it/mibact/luoghi/resource/CulturalInstituteOrSite/104223,Museo di arte contemporanea e dei pittori dell’emigrazione,http://dati.beniculturali.it/mibact/luoghi/resource/City/Recanati,http://dati.beniculturali.it/mibact/luoghi/resource/Region/Marche,43.40223,13.551569,1.00
http://dati.beniculturali.it/mibact/luoghi/resource/CulturalInstituteOrSite/105573,Museo civico Troia,http://dati.beniculturali.it/mibact/luoghi/resource/City/Troia,http://dati.beniculturali.it/mibact/luoghi/resource/Region/Puglia,41.36212,15.310318,17.00
http://dati.beniculturali.it/mibact/luoghi/resource/CulturalInstituteOrSite/107777,Galleria Giorgio Franchetti alla Ca' d'Oro,http://dati.beniculturali.it/mibact/luoghi/resource/City/Venezia,http://dati.beniculturali.it/mibact/luoghi/resource/Region/Veneto,45.440838,12.333926,8.00
http://dati.beniculturali.it/mibact/luoghi/resource/CulturalInstituteOrSite/103610,Civico museo archeologico Paolo Giovio,http://dati.beniculturali.it/mibact/luoghi/resource/City/Como,http://dati.beniculturali.it/mibact/luoghi/resource/Region/Lombardia,45.808647,9.086093,4.00
http://dati.beniculturali.it/mibact/luoghi/resource/CulturalInstituteOrSite/105506,Museo delle arti tipografiche,http://dati.beniculturali.it/mibact/luoghi/resource/City/Arpino,http://dati.beniculturali.it/mibact/luoghi/resource/Region/Lazio,41.64667,13.61249,2.00
http://dati.beniculturali.it/mibact/luoghi/resource/CulturalInstituteOrSite/104918,"Museo della frutta ""Francesco Garnier Valletti""",http://dati.beniculturali.it/mibact/luoghi/resource/City/Torino,http://dati.beniculturali.it/mibact/luoghi/resource/Region/Piemonte,45.049778,7.679596,5.00
http://dati.beniculturali.it/mibact/luoghi/resource/CulturalInstituteOrSite/104294,Mateureka Museo del calcolo,http://dati.beniculturali.it/mibact/luoghi/resource/City/Pennabilli,http://dati.beniculturali.it/mibact/luoghi/resource/Region/Emilia-Romagna,43.816807,12.265355,5.00
http://dati.beniculturali.it/mibact/luoghi/resource/CulturalInstituteOrSite/102020,Museo Lamborghini,http://dati.beniculturali.it/mibact/luoghi/resource/City/Sant_Agata_Bolognese,http://dati.beniculturali.it/mibact/luoghi/resource/Region/Emilia-Romagna,44.65966,11.12559,15.00
http://dati.beniculturali.it/mibact/luoghi/resource/CulturalInstituteOrSite/101936,Musei civici d'arte antica - Collezioni comunali d'arte di Bologna,http://dati.beniculturali.it/mibact/luoghi/resource/City/Bologna,http://dati.beniculturali.it/mibact/luoghi/resource/Region/Emilia-Romagna,44.49395,11.342442,6.00
http://dati.beniculturali.it/mibact/luoghi/resource/CulturalInstituteOrSite/106851,"Museo ""Ludovigo Pogliaghi""",http://dati.beniculturali.it/mibact/luoghi/resource/City/Varese,http://dati.beniculturali.it/mibact/luoghi/resource/Region/Lombardia,45.859276,8.79388,6.00
http://dati.beniculturali.it/mibact/luoghi/resource/CulturalInstituteOrSite/103538,Museo e villaggio africano,http://dati.beniculturali.it/mibact/luoghi/resource/City/Urgnano,http://dati.beniculturali.it/mibact/luoghi/resource/Region/Lombardia,45.601574,9.694852,2.00
http://dati.beniculturali.it/mibact/luoghi/resource/CulturalInstituteOrSite/101997,Palazzo Tozzoni,http://dati.beniculturali.it/mibact/luoghi/resource/City/Imola,http://dati.beniculturali.it/mibact/luoghi/resource/Region/Emilia-Romagna,44.353455,11.710278,4.00
http://dati.beniculturali.it/mibact/luoghi/resource/CulturalInstituteOrSite/20271,Museo Mario Praz,http://dati.beniculturali.it/mibact/luoghi/resource/City/Roma,http://dati.beniculturali.it/mibact/luoghi/resource/Region/Lazio,41.901863,12.471927,6.00
http://dati.beniculturali.it/mibact/luoghi/resource/CulturalInstituteOrSite/111555,Wi.Mu Wine Museum - Castello comunale Falletti di Barolo,http://dati.beniculturali.it/mibact/luoghi/resource/City/Barolo,http://dati.beniculturali.it/mibact/luoghi/resource/Region/Piemonte,44.608803,7.940304,9.00
http://dati.beniculturali.it/mibact/luoghi/resource/CulturalInstituteOrSite/102043,MAF - Museo archeologico di Forlimpopoli,http://dati.beniculturali.it/mibact/luoghi/resource/City/Forlimpopoli,http://dati.beniculturali.it/mibact/luoghi/resource/Region/Emilia-Romagna,44.187305,12.125924,4.00
http://dati.beniculturali.it/mibact/luoghi/resource/CulturalInstituteOrSite/133753,Museo Civico Archeologico e della Collegiata,http://dati.beniculturali.it/mibact/luoghi/resource/City/Casole_d_Elsa,http://dati.beniculturali.it/mibact/luoghi/resource/Region/Toscana,43.34164,11.042841,3.00
http://dati.beniculturali.it/mibact/luoghi/resource/CulturalInstituteOrSite/106609,Orto botanico di Torino,http://dati.beniculturali.it/mibact/luoghi/resource/City/Torino,http://dati.beniculturali.it/mibact/luoghi/resource/Region/Piemonte,45.056526,7.686828,5.00
http://dati.beniculturali.it/mibact/luoghi/resource/CulturalInstituteOrSite/20320,Museo archeologico nazionale d'Abruzzo - Villa Frigerj,http://dati.beniculturali.it/mibact/luoghi/resource/City/Chieti,http://dati.beniculturali.it/mibact/luoghi/resource/Region/Abruzzo,42.342743,14.164568,5.00
http://dati.beniculturali.it/mibact/luoghi/resource/CulturalInstituteOrSite/102181,Complesso monumentale della Pilotta - Museo Bodoni,http://dati.beniculturali.it/mibact/luoghi/resource/City/Parma,http://dati.beniculturali.it/mibact/luoghi/resource/Region/Emilia-Romagna,44.804806,10.325984,18.00
http://dati.beniculturali.it/mibact/luoghi/resource/CulturalInstituteOrSite/102210,Museo internazionale delle ceramiche in Faenza,http://dati.beniculturali.it/mibact/luoghi/resource/City/Faenza,http://dati.beniculturali.it/mibact/luoghi/resource/Region/Emilia-Romagna,44.29101,11.881556,10.00
http://dati.beniculturali.it/mibact/luoghi/resource/CulturalInstituteOrSite/20757,"Galleria nazionale della Puglia ""Girolamo e Rosaria Devanna""",http://dati.beniculturali.it/mibact/luoghi/resource/City/Bitonto,http://dati.beniculturali.it/mibact/luoghi/resource/Region/Puglia,41.106106,16.69108,6.00
http://dati.beniculturali.it/mibact/luoghi/resource/CulturalInstituteOrSite/106891,Galleria comunale d’arte di Lecco,http://dati.beniculturali.it/mibact/luoghi/resource/City/Lecco,http://dati.beniculturali.it/mibact/luoghi/resource/Region/Lombardia,45.85298,9.390071,6.00
http://dati.beniculturali.it/mibact/luoghi/resource/CulturalInstituteOrSite/100377,Villa Luxoro,http://dati.beniculturali.it/mibact/luoghi/resource/City/Genova,http://dati.beniculturali.it/mibact/luoghi/resource/Region/Liguria,44.380768,9.053976,4.00
http://dati.beniculturali.it/mibact/luoghi/resource/CulturalInstituteOrSite/106754,Museo del carcere Le Nuove,http://dati.beniculturali.it/mibact/luoghi/resource/City/Torino,http://dati.beniculturali.it/mibact/luoghi/resource/Region/Piemonte,45.068844,7.659481,6.00
http://dati.beniculturali.it/mibact/luoghi/resource/CulturalInstituteOrSite/103374,Museo delle maschere mediterranee,http://dati.beniculturali.it/mibact/luoghi/resource/City/Mamoiada,http://dati.beniculturali.it/mibact/luoghi/resource/Region/Sardegna,40.211594,9.283931,4.00
http://dati.beniculturali.it/mibact/luoghi/resource/CulturalInstituteOrSite/103344,"Museo etnografico ""Antico mulino ad acqua Licheri""",http://dati.beniculturali.it/mibact/luoghi/resource/City/Fluminimaggiore,http://dati.beniculturali.it/mibact/luoghi/resource/Region/Sardegna,39.437923,8.496932,3.00
http://dati.beniculturali.it/mibact/luoghi/resource/CulturalInstituteOrSite/111665,Museo della cultura e del lavoro di Mamoiada,http://dati.beniculturali.it/mibact/luoghi/resource/City/Mamoiada,http://dati.beniculturali.it/mibact/luoghi/resource/Region/Sardegna,40.21338,9.283258,4.00
http://dati.beniculturali.it/mibact/luoghi/resource/CulturalInstituteOrSite/20231,Museo nazionale romano - Palazzo Massimo,http://dati.beniculturali.it/mibact/luoghi/resource/City/Roma,http://dati.beniculturali.it/mibact/luoghi/resource/Region/Lazio,41.90184,12.498265,8.00
http://dati.beniculturali.it/mibact/luoghi/resource/CulturalInstituteOrSite/102718,"Civico museo didattico di scienze naturali ""Mario Strani""",http://dati.beniculturali.it/mibact/luoghi/resource/City/Pinerolo,http://dati.beniculturali.it/mibact/luoghi/resource/Region/Piemonte,44.884705,7.330857,5.00
http://dati.beniculturali.it/mibact/luoghi/resource/CulturalInstituteOrSite/100359,Complesso architettonico Galata Museo del mare,http://dati.beniculturali.it/mibact/luoghi/resource/City/Genova,http://dati.beniculturali.it/mibact/luoghi/resource/Region/Liguria,44.41403,8.923645,17.00
http://dati.beniculturali.it/mibact/luoghi/resource/CulturalInstituteOrSite/101315,"Museo di zoologia ""Pietro D'Oberlein""",http://dati.beniculturali.it/mibact/luoghi/resource/City/Palermo,http://dati.beniculturali.it/mibact/luoghi/resource/Region/Sicilia,38.111988,13.371721,3.00
http://dati.beniculturali.it/mibact/luoghi/resource/CulturalInstituteOrSite/101149,"Museo degli Affreschi ""G.B. Cavalcaselle""",http://dati.beniculturali.it/mibact/luoghi/resource/City/Verona,http://dati.beniculturali.it/mibact/luoghi/resource/Region/Veneto,45.433193,10.996125,4.50
http://dati.beniculturali.it/mibact/luoghi/resource/CulturalInstituteOrSite/102278,Museo paleontologico comunale,http://dati.beniculturali.it/mibact/luoghi/resource/City/Mondaino,http://dati.beniculturali.it/mibact/luoghi/resource/Region/Emilia-Romagna,43.855785,12.671162,2.50
http://dati.beniculturali.it/mibact/luoghi/resource/CulturalInstituteOrSite/101200,Museo del giocattolo di Catania,http://dati.beniculturali.it/mibact/luoghi/resource/City/Catania,http://dati.beniculturali.it/mibact/luoghi/resource/Region/Sicilia,37.502552,15.085416,2.50
http://dati.beniculturali.it/mibact/luoghi/resource/CulturalInstituteOrSite/104262,Museo archeologico e della Via Flaminia Giulio Cesare Corsi,http://dati.beniculturali.it/mibact/luoghi/resource/City/Cantiano,http://dati.beniculturali.it/mibact/luoghi/resource/Region/Marche,43.47314,12.628119,1.00
http://dati.beniculturali.it/mibact/luoghi/resource/CulturalInstituteOrSite/20224,Museo delle arti e tradizioni popolari dell’Alta valle del Tevere - Palazzo Taglieschi,http://dati.beniculturali.it/mibact/luoghi/resource/City/Anghiari,http://dati.beniculturali.it/mibact/luoghi/resource/Region/Toscana,43.540848,12.056395,4.00
http://dati.beniculturali.it/mibact/luoghi/resource/CulturalInstituteOrSite/20278,Museo di San Marco,http://dati.beniculturali.it/mibact/luoghi/resource/City/Firenze,http://dati.beniculturali.it/mibact/luoghi/resource/Region/Toscana,43.7779,11.259393,8.00
http://dati.beniculturali.it/mibact/luoghi/resource/CulturalInstituteOrSite/107218,"Museo multimediale della 500 ""Dante Giacosa""",http://dati.beniculturali.it/mibact/luoghi/resource/City/Garlenda,http://dati.beniculturali.it/mibact/luoghi/resource/Region/Liguria,44.033443,8.092523,3.00
http://dati.beniculturali.it/mibact/luoghi/resource/CulturalInstituteOrSite/104762,Fucina ludoteca,http://dati.beniculturali.it/mibact/luoghi/resource/City/Bienno,http://dati.beniculturali.it/mibact/luoghi/resource/Region/Lombardia,45.934074,10.290282,2.00
http://dati.beniculturali.it/mibact/luoghi/resource/CulturalInstituteOrSite/103017,Museo d'arte sacra e centro per l'arte contemporanea Angiolino Martini - Complesso di San Pietro in Orto,http://dati.beniculturali.it/mibact/luoghi/resource/City/Massa_Marittima,http://dati.beniculturali.it/mibact/luoghi/resource/Region/Toscana,43.05129,10.892981,5.00
http://dati.beniculturali.it/mibact/luoghi/resource/CulturalInstituteOrSite/100363,"Museo civico di storia naturale ""Giacomo Doria""",http://dati.beniculturali.it/mibact/luoghi/resource/City/Genova,http://dati.beniculturali.it/mibact/luoghi/resource/Region/Liguria,44.402405,8.942966,6.00
http://dati.beniculturali.it/mibact/luoghi/resource/CulturalInstituteOrSite/103653,Civico museo della seta Abegg,http://dati.beniculturali.it/mibact/luoghi/resource/City/Garlate,http://dati.beniculturali.it/mibact/luoghi/resource/Region/Lombardia,45.806385,9.403263,6.00
http://dati.beniculturali.it/mibact/luoghi/resource/CulturalInstituteOrSite/106877,MAGA - Museo Arte Gallarate,http://dati.beniculturali.it/mibact/luoghi/resource/City/Gallarate,http://dati.beniculturali.it/mibact/luoghi/resource/Region/Lombardia,45.654194,8.798695,10.00
http://dati.beniculturali.it/mibact/luoghi/resource/CulturalInstituteOrSite/108175,Museo Civita,http://dati.beniculturali.it/mibact/luoghi/resource/City/Grotte_di_Castro,http://dati.beniculturali.it/mibact/luoghi/resource/Region/Lazio,42.68472,11.902793,5.00
http://dati.beniculturali.it/mibact/luoghi/resource/CulturalInstituteOrSite/20233,Museo nazionale romano - Terme di Diocleziano,http://dati.beniculturali.it/mibact/luoghi/resource/City/Roma,http://dati.beniculturali.it/mibact/luoghi/resource/Region/Lazio,41.903873,12.498708,8.00
http://dati.beniculturali.it/mibact/luoghi/resource/CulturalInstituteOrSite/20299,Museo archeologico statale di Cingoli Moscosi,http://dati.beniculturali.it/mibact/luoghi/resource/City/Cingoli,http://dati.beniculturali.it/mibact/luoghi/resource/Region/Marche,43.37386,13.216211,4.00
http://dati.beniculturali.it/mibact/luoghi/resource/CulturalInstituteOrSite/103395,Museo del giocattolo tradizionale della Sardegna,http://dati.beniculturali.it/mibact/luoghi/resource/City/Ales,http://dati.beniculturali.it/mibact/luoghi/resource/Region/Sardegna,39.774662,8.830454,3.00
http://dati.beniculturali.it/mibact/luoghi/resource/CulturalInstituteOrSite/101828,Museo del Centro Caprense Ignazio Cerio,http://dati.beniculturali.it/mibact/luoghi/resource/City/Capri,http://dati.beniculturali.it/mibact/luoghi/resource/Region/Campania,40.548897,14.245807,4.00
http://dati.beniculturali.it/mibact/luoghi/resource/CulturalInstituteOrSite/104004,Museo regionale di Palazzo Mirto,http://dati.beniculturali.it/mibact/luoghi/resource/City/Palermo,http://dati.beniculturali.it/mibact/luoghi/resource/Region/Sicilia,38.116592,13.368641,6.00
http://dati.beniculturali.it/mibact/luoghi/resource/CulturalInstituteOrSite/140954,Ex Chiesa Santa Maria dell’Immacolata Concezione,http://dati.beniculturali.it/mibact/luoghi/resource/City/Carbognano,http://dati.beniculturali.it/mibact/luoghi/resource/Region/Lazio,42.331505,12.267627,3.00
http://dati.beniculturali.it/mibact/luoghi/resource/CulturalInstituteOrSite/102133,Museo della città di Bobbio,http://dati.beniculturali.it/mibact/luoghi/resource/City/Bobbio,http://dati.beniculturali.it/mibact/luoghi/resource/Region/Emilia-Romagna,44.76804,9.386041,3.00
http://dati.beniculturali.it/mibact/luoghi/resource/CulturalInstituteOrSite/112127,"Museo Sisan delle tradizioni Ornitologiche, ittiche, venatorie del Comprensorio Gardesano",http://dati.beniculturali.it/mibact/luoghi/resource/City/Bardolino,http://dati.beniculturali.it/mibact/luoghi/resource/Region/Veneto,45.55182,10.721468,3.50
http://dati.beniculturali.it/mibact/luoghi/resource/CulturalInstituteOrSite/100459,Museo archeologico del Finale,http://dati.beniculturali.it/mibact/luoghi/resource/City/Finale_Ligure,http://dati.beniculturali.it/mibact/luoghi/resource/Region/Liguria,44.169987,8.345165,5.00
http://dati.beniculturali.it/mibact/luoghi/resource/CulturalInstituteOrSite/105553,Museo civico di storia naturale di Piacenza,http://dati.beniculturali.it/mibact/luoghi/resource/City/Piacenza,http://dati.beniculturali.it/mibact/luoghi/resource/Region/Emilia-Romagna,45.04755,9.70332,3.00
http://dati.beniculturali.it/mibact/luoghi/resource/CulturalInstituteOrSite/112101,Museo della Scuola grande San Giovanni Evangelista,http://dati.beniculturali.it/mibact/luoghi/resource/City/Venezia,http://dati.beniculturali.it/mibact/luoghi/resource/Region/Veneto,45.4363,12.328786,10.00
http://dati.beniculturali.it/mibact/luoghi/resource/CulturalInstituteOrSite/105624,"Museo archeologico navale ""Nino Lamboglia""",http://dati.beniculturali.it/mibact/luoghi/resource/City/La_Maddalena,http://dati.beniculturali.it/mibact/luoghi/resource/Region/Sardegna,41.214436,9.407588,4.00
http://dati.beniculturali.it/mibact/luoghi/resource/CulturalInstituteOrSite/103770,Musei civici di Pavia,http://dati.beniculturali.it/mibact/luoghi/resource/City/Pavia,http://dati.beniculturali.it/mibact/luoghi/resource/Region/Lombardia,45.19187,9.156736,6.00
http://dati.beniculturali.it/mibact/luoghi/resource/CulturalInstituteOrSite/103378,Museo MAN - Museo d'arte Provincia di Nuoro,http://dati.beniculturali.it/mibact/luoghi/resource/City/Nuoro,http://dati.beniculturali.it/mibact/luoghi/resource/Region/Sardegna,40.321537,9.333627,5.00
http://dati.beniculturali.it/mibact/luoghi/resource/CulturalInstituteOrSite/104056,"Museo di ""San Clemente""",http://dati.beniculturali.it/mibact/luoghi/resource/City/Genga,http://dati.beniculturali.it/mibact/luoghi/resource/Region/Marche,43.428722,12.935871,4.00
http://dati.beniculturali.it/mibact/luoghi/resource/CulturalInstituteOrSite/102325,Museo della Fondazione Ettore Pomarici Santomasi,http://dati.beniculturali.it/mibact/luoghi/resource/City/Gravina_in_Puglia,http://dati.beniculturali.it/mibact/luoghi/resource/Region/Puglia,40.82118,16.419338,4.00
http://dati.beniculturali.it/mibact/luoghi/resource/CulturalInstituteOrSite/103998,Scavi di Halaesa Arconidea - Museo archeologico,http://dati.beniculturali.it/mibact/luoghi/resource/City/Tusa,http://dati.beniculturali.it/mibact/luoghi/resource/Region/Sicilia,37.980026,14.251222,2.00
http://dati.beniculturali.it/mibact/luoghi/resource/CulturalInstituteOrSite/104279,Museo civico archeologico e paleontologico di Macerata Feltria,http://dati.beniculturali.it/mibact/luoghi/resource/City/Macerata_Feltria,http://dati.beniculturali.it/mibact/luoghi/resource/Region/Marche,43.80391,12.441259,2.00
http://dati.beniculturali.it/mibact/luoghi/resource/CulturalInstituteOrSite/102789,Appartamenti reali del Borgo Castello,http://dati.beniculturali.it/mibact/luoghi/resource/City/Venaria_Reale,http://dati.beniculturali.it/mibact/luoghi/resource/Region/Piemonte,45.13417,7.629048,8.00
http://dati.beniculturali.it/mibact/luoghi/resource/CulturalInstituteOrSite/101415,Museo archeologico di Frosinone,http://dati.beniculturali.it/mibact/luoghi/resource/City/Frosinone,http://dati.beniculturali.it/mibact/luoghi/resource/Region/Lazio,41.639397,13.352388,2.00
http://dati.beniculturali.it/mibact/luoghi/resource/CulturalInstituteOrSite/102848,Casa museo Ivan Bruschi,http://dati.beniculturali.it/mibact/luoghi/resource/City/Arezzo,http://dati.beniculturali.it/mibact/luoghi/resource/Region/Toscana,43.46515,11.88327,5.00
http://dati.beniculturali.it/mibact/luoghi/resource/CulturalInstituteOrSite/103432,Museo d'arte contemporanea di Buddusò,http://dati.beniculturali.it/mibact/luoghi/resource/City/Budduso,http://dati.beniculturali.it/mibact/luoghi/resource/Region/Sardegna,40.573097,9.254213,3.00
http://dati.beniculturali.it/mibact/luoghi/resource/CulturalInstituteOrSite/20531,Museo di Casa Vasari,http://dati.beniculturali.it/mibact/luoghi/resource/City/Arezzo,http://dati.beniculturali.it/mibact/luoghi/resource/Region/Toscana,43.468887,11.880229,4.00
http://dati.beniculturali.it/mibact/luoghi/resource/CulturalInstituteOrSite/110915,Museo Vivo della Memoria,http://dati.beniculturali.it/mibact/luoghi/resource/City/Colle_San_Magno,http://dati.beniculturali.it/mibact/luoghi/resource/Region/Lazio,41.55141,13.695567,2.00
http://dati.beniculturali.it/mibact/luoghi/resource/CulturalInstituteOrSite/20367,Museo del Lapidario di Urbino,http://dati.beniculturali.it/mibact/luoghi/resource/City/Urbino,http://dati.beniculturali.it/mibact/luoghi/resource/Region/Marche,43.724503,12.636868,10.00
http://dati.beniculturali.it/mibact/luoghi/resource/CulturalInstituteOrSite/104122,Musei sistini del Piceno - Museo sistino vescovile di Montalto Marche,http://dati.beniculturali.it/mibact/luoghi/resource/City/Montalto_delle_Marche,http://dati.beniculturali.it/mibact/luoghi/resource/Region/Marche,42.98859,13.608547,1.00
http://dati.beniculturali.it/mibact/luoghi/resource/CulturalInstituteOrSite/100458,Museo paleontologico Silvio Lai,http://dati.beniculturali.it/mibact/luoghi/resource/City/Ceriale,http://dati.beniculturali.it/mibact/luoghi/resource/Region/Liguria,44.089867,8.208929,2.00
http://dati.beniculturali.it/mibact/luoghi/resource/CulturalInstituteOrSite/105279,Museo geologico delle frane di Civita di Bagnoregio,http://dati.beniculturali.it/mibact/luoghi/resource/City/Bagnoregio,http://dati.beniculturali.it/mibact/luoghi/resource/Region/Lazio,42.627724,12.113638,5.00
http://dati.beniculturali.it/mibact/luoghi/resource/CulturalInstituteOrSite/103332,Museo Omu axiu,http://dati.beniculturali.it/mibact/luoghi/resource/City/Orroli,http://dati.beniculturali.it/mibact/luoghi/resource/Region/Sardegna,39.692238,9.253055,4.00
http://dati.beniculturali.it/mibact/luoghi/resource/CulturalInstituteOrSite/20249,"Museo nazionale delle residenze napoleoniche ""Palazzina dei Mulini""",http://dati.beniculturali.it/mibact/luoghi/resource/City/Portoferraio,http://dati.beniculturali.it/mibact/luoghi/resource/Region/Toscana,42.816734,10.332136,5.00
http://dati.beniculturali.it/mibact/luoghi/resource/CulturalInstituteOrSite/20182,Palazzo Ducale di Gubbio,http://dati.beniculturali.it/mibact/luoghi/resource/City/Gubbio,http://dati.beniculturali.it/mibact/luoghi/resource/Region/Umbria,43.35394,12.579728,5.00
http://dati.beniculturali.it/mibact/luoghi/resource/CulturalInstituteOrSite/100438,CAMEC - Centro d'arte moderna e contemporanea,http://dati.beniculturali.it/mibact/luoghi/resource/City/La_Spezia,http://dati.beniculturali.it/mibact/luoghi/resource/Region/Liguria,44.10303,9.820681,6.00
http://dati.beniculturali.it/mibact/luoghi/resource/CulturalInstituteOrSite/102346,Museo del territorio Ugo Granafei di Mesagne,http://dati.beniculturali.it/mibact/luoghi/resource/City/Mesagne,http://dati.beniculturali.it/mibact/luoghi/resource/Region/Puglia,40.56033,17.80754,3.00
http://dati.beniculturali.it/mibact/luoghi/resource/CulturalInstituteOrSite/103516,Museo della Basilica di Santa Maria Assunta,http://dati.beniculturali.it/mibact/luoghi/resource/City/Gandino,http://dati.beniculturali.it/mibact/luoghi/resource/Region/Lombardia,45.81699,9.895972,5.00
http://dati.beniculturali.it/mibact/luoghi/resource/CulturalInstituteOrSite/100244,Museo della Comunità ebraica di Trieste Carlo e Vera Wagner,http://dati.beniculturali.it/mibact/luoghi/resource/City/Trieste,http://dati.beniculturali.it/mibact/luoghi/resource/Region/Friuli-Venezia_Giulia,45.64928,13.774672,5.00
http://dati.beniculturali.it/mibact/luoghi/resource/CulturalInstituteOrSite/106290,Casa-museo Sa domu antiga,http://dati.beniculturali.it/mibact/luoghi/resource/City/Santadi,http://dati.beniculturali.it/mibact/luoghi/resource/Region/Sardegna,39.092964,8.71571,2.60
http://dati.beniculturali.it/mibact/luoghi/resource/CulturalInstituteOrSite/103660,Museo etnografico di Premana,http://dati.beniculturali.it/mibact/luoghi/resource/City/Premana,http://dati.beniculturali.it/mibact/luoghi/resource/Region/Lombardia,46.0537,9.41921,3.00
http://dati.beniculturali.it/mibact/luoghi/resource/CulturalInstituteOrSite/102025,Museo dell'uomo e dell'ambiente,http://dati.beniculturali.it/mibact/luoghi/resource/City/Castrocaro_Terme_e_Terra_del_Sole,http://dati.beniculturali.it/mibact/luoghi/resource/Region/Emilia-Romagna,44.17216,11.947898,5.00
http://dati.beniculturali.it/mibact/luoghi/resource/CulturalInstituteOrSite/101250,Acquario di Messina,http://dati.beniculturali.it/mibact/luoghi/resource/City/Messina,http://dati.beniculturali.it/mibact/luoghi/resource/Region/Sicilia,38.19902,15.55764,3.00
http://dati.beniculturali.it/mibact/luoghi/resource/CulturalInstituteOrSite/103593,Fondazione PINAC - Pinacoteca internazionale dell'età evolutiva A. Cibaldi,http://dati.beniculturali.it/mibact/luoghi/resource/City/Rezzato,http://dati.beniculturali.it/mibact/luoghi/resource/Region/Lombardia,45.516083,10.3159,5.00
http://dati.beniculturali.it/mibact/luoghi/resource/CulturalInstituteOrSite/100103,Museo di scienze naturali di Mosciano Sant'Angelo,http://dati.beniculturali.it/mibact/luoghi/resource/City/Mosciano_Sant_Angelo,http://dati.beniculturali.it/mibact/luoghi/resource/Region/Abruzzo,42.743538,13.888583,4.00
http://dati.beniculturali.it/mibact/luoghi/resource/CulturalInstituteOrSite/105954,Museo civico Castelnuovo,http://dati.beniculturali.it/mibact/luoghi/resource/City/Napoli,http://dati.beniculturali.it/mibact/luoghi/resource/Region/Campania,40.841072,14.255583,6.00
http://dati.beniculturali.it/mibact/luoghi/resource/CulturalInstituteOrSite/106242,Museo ferroviario piemontese,http://dati.beniculturali.it/mibact/luoghi/resource/City/Savigliano,http://dati.beniculturali.it/mibact/luoghi/resource/Region/Piemonte,44.64051,7.664542,5.00
http://dati.beniculturali.it/mibact/luoghi/resource/CulturalInstituteOrSite/100640,Museo degli usi e costumi della gente trentina,http://dati.beniculturali.it/mibact/luoghi/resource/City/San_Michele_all_Adige,http://dati.beniculturali.it/mibact/luoghi/resource/Region/Trentino-Alto_Adige,46.187866,11.133042,6.00
http://dati.beniculturali.it/mibact/luoghi/resource/CulturalInstituteOrSite/102846,Museo Francesco Borgogna,http://dati.beniculturali.it/mibact/luoghi/resource/City/Vercelli,http://dati.beniculturali.it/mibact/luoghi/resource/Region/Piemonte,45.32551,8.426772,10.00
http://dati.beniculturali.it/mibact/luoghi/resource/CulturalInstituteOrSite/100428,Pinacoteca David Beghe',http://dati.beniculturali.it/mibact/luoghi/resource/City/Calice_al_Cornoviglio,http://dati.beniculturali.it/mibact/luoghi/resource/Region/Liguria,44.24306,9.836418,3.00
http://dati.beniculturali.it/mibact/luoghi/resource/CulturalInstituteOrSite/106764,Sacrestia aperta,http://dati.beniculturali.it/mibact/luoghi/resource/City/Casale_Monferrato,http://dati.beniculturali.it/mibact/luoghi/resource/Region/Piemonte,45.137325,8.452956,5.00
http://dati.beniculturali.it/mibact/luoghi/resource/CulturalInstituteOrSite/100548,Museo della donna Evelyn Ortner,http://dati.beniculturali.it/mibact/luoghi/resource/City/Merano_Meran,http://dati.beniculturali.it/mibact/luoghi/resource/Region/Trentino-Alto_Adige,46.67115,11.16341,4.00
