[
  {
    "Library_ID": "http://dati.beniculturali.it/mibact/luoghi/resource/CulturalInstituteOrSite/20546",
    "Library_Name": "Biblioteca Casanatense",
    "Library_City": "http://dati.beniculturali.it/mibact/luoghi/resource/City/Roma",
    "Library_Region": "http://dati.beniculturali.it/mibact/luoghi/resource/Region/Lazio",
    "Library_Latitude": 41.898148,
    "Library_Longitude": 12.479639,
    "Ticket_Cost": "Free Entry"
  },
  {
    "Library_ID": "http://dati.beniculturali.it/mibact/luoghi/resource/CulturalInstituteOrSite/117300",
    "Library_Name": "Biblioteca Statale di Lucca",
    "Library_City": "http://dati.beniculturali.it/mibact/luoghi/resource/City/Lucca",
    "Library_Region": "http://dati.beniculturali.it/mibact/luoghi/resource/Region/Toscana",
    "Library_Latitude": 43.8449,
    "Library_Longitude": 10.501189,
    "Ticket_Cost": "Free Entry"
  },
  {
    "Library_ID": "http://dati.beniculturali.it/mibact/luoghi/resource/CulturalInstituteOrSite/117246",
    "Library_Name": "Biblioteca Riccardiana",
    "Library_City": "http://dati.beniculturali.it/mibact/luoghi/resource/City/Firenze",
    "Library_Region": "http://dati.beniculturali.it/mibact/luoghi/resource/Region/Toscana",
    "Library_Latitude": 43.77558,
    "Library_Longitude": 11.255349,
    "Ticket_Cost": "Free Entry"
  },
  {
    "Library_ID": "http://dati.beniculturali.it/mibact/luoghi/resource/CulturalInstituteOrSite/110370",
    "Library_Name": "Biblioteca Medicea Laurenziana",
    "Library_City": "http://dati.beniculturali.it/mibact/luoghi/resource/City/Firenze",
    "Library_Region": "http://dati.beniculturali.it/mibact/luoghi/resource/Region/Toscana",
    "Library_Latitude": 43.774815,
    "Library_Longitude": 11.254537,
    "Ticket_Cost": "Free Entry"
  },
  {
    "Library_ID": "http://dati.beniculturali.it/mibact/luoghi/resource/CulturalInstituteOrSite/117729",
    "Library_Name": "Biblioteca Medica Statale di Roma",
    "Library_City": "http://dati.beniculturali.it/mibact/luoghi/resource/City/Roma",
    "Library_Region": "http://dati.beniculturali.it/mibact/luoghi/resource/Region/Lazio",
    "Library_Latitude": 0.040255,
    "Library_Longitude": -0.010042,
    "Ticket_Cost": "Free Entry"
  },
  {
    "Library_ID": "http://dati.beniculturali.it/mibact/luoghi/resource/CulturalInstituteOrSite/116763",
    "Library_Name": "Biblioteca Universitaria di Padova",
    "Library_City": "http://dati.beniculturali.it/mibact/luoghi/resource/City/Padova",
    "Library_Region": "http://dati.beniculturali.it/mibact/luoghi/resource/Region/Veneto",
    "Library_Latitude": 45.40711,
    "Library_Longitude": 11.880526,
    "Ticket_Cost": "Free Entry"
  },
  {
    "Library_ID": "http://dati.beniculturali.it/mibact/luoghi/resource/CulturalInstituteOrSite/117389",
    "Library_Name": "Biblioteca statale di Macerata",
    "Library_City": "http://dati.beniculturali.it/mibact/luoghi/resource/City/Macerata",
    "Library_Region": "http://dati.beniculturali.it/mibact/luoghi/resource/Region/Marche",
    "Library_Latitude": 43.30105,
    "Library_Longitude": 13.448922,
    "Ticket_Cost": "Free Entry"
  },
  {
    "Library_ID": "http://dati.beniculturali.it/mibact/luoghi/resource/CulturalInstituteOrSite/117127",
    "Library_Name": "Biblioteca Vallicelliana",
    "Library_City": "http://dati.beniculturali.it/mibact/luoghi/resource/City/Roma",
    "Library_Region": "http://dati.beniculturali.it/mibact/luoghi/resource/Region/Lazio",
    "Library_Latitude": 41.898186,
    "Library_Longitude": 12.469432,
    "Ticket_Cost": "Free Entry"
  },
  {
    "Library_ID": "http://dati.beniculturali.it/mibact/luoghi/resource/CulturalInstituteOrSite/118286",
    "Library_Name": "Biblioteca Statale del Monumento Nazionale di Santa Scolastica",
    "Library_City": "http://dati.beniculturali.it/mibact/luoghi/resource/City/Subiaco",
    "Library_Region": "http://dati.beniculturali.it/mibact/luoghi/resource/Region/Lazio",
    "Library_Latitude": 41.925537,
    "Library_Longitude": 13.104736,
    "Ticket_Cost": "Free Entry"
  },
  {
    "Library_ID": "http://dati.beniculturali.it/mibact/luoghi/resource/CulturalInstituteOrSite/20007",
    "Library_Name": "Biblioteca Universitaria di Cagliari",
    "Library_City": "http://dati.beniculturali.it/mibact/luoghi/resource/City/Cagliari",
    "Library_Region": "http://dati.beniculturali.it/mibact/luoghi/resource/Region/Sardegna",
    "Library_Latitude": 39.217236,
    "Library_Longitude": 9.115117,
    "Ticket_Cost": "Free Entry"
  },
  {
    "Library_ID": "http://dati.beniculturali.it/mibact/luoghi/resource/CulturalInstituteOrSite/117488",
    "Library_Name": "Biblioteca statale Antonio Baldini",
    "Library_City": "http://dati.beniculturali.it/mibact/luoghi/resource/City/Roma",
    "Library_Region": "http://dati.beniculturali.it/mibact/luoghi/resource/Region/Lazio",
    "Library_Latitude": 41.91954,
    "Library_Longitude": 12.48609,
    "Ticket_Cost": "Free Entry"
  },
  {
    "Library_ID": "http://dati.beniculturali.it/mibact/luoghi/resource/CulturalInstituteOrSite/118200",
    "Library_Name": "Biblioteca Statale del Monumento Nazionale di Montecassino",
    "Library_City": "http://dati.beniculturali.it/mibact/luoghi/resource/City/Cassino",
    "Library_Region": "http://dati.beniculturali.it/mibact/luoghi/resource/Region/Lazio",
    "Library_Latitude": 41.490738,
    "Library_Longitude": 13.82541,
    "Ticket_Cost": "Free Entry"
  },
  {
    "Library_ID": "http://dati.beniculturali.it/mibact/luoghi/resource/CulturalInstituteOrSite/111278",
    "Library_Name": "Biblioteca statale di Cremona",
    "Library_City": "http://dati.beniculturali.it/mibact/luoghi/resource/City/Cremona",
    "Library_Region": "http://dati.beniculturali.it/mibact/luoghi/resource/Region/Lombardia",
    "Library_Latitude": 45.138042,
    "Library_Longitude": 10.021977,
    "Ticket_Cost": "Free Entry"
  },
  {
    "Library_ID": "http://dati.beniculturali.it/mibact/luoghi/resource/CulturalInstituteOrSite/111046",
    "Library_Name": "Biblioteca di storia moderna e contemporanea",
    "Library_City": "http://dati.beniculturali.it/mibact/luoghi/resource/City/Roma",
    "Library_Region": "http://dati.beniculturali.it/mibact/luoghi/resource/Region/Lazio",
    "Library_Latitude": 41.894035,
    "Library_Longitude": 12.478293,
    "Ticket_Cost": "Free Entry"
  },
  {
    "Library_ID": "http://dati.beniculturali.it/mibact/luoghi/resource/CulturalInstituteOrSite/117596",
    "Library_Name": "Complesso monumentale della Pilotta - Biblioteca Palatina di Parma",
    "Library_City": "http://dati.beniculturali.it/mibact/luoghi/resource/City/Parma",
    "Library_Region": "http://dati.beniculturali.it/mibact/luoghi/resource/Region/Emilia-Romagna",
    "Library_Latitude": 44.80498,
    "Library_Longitude": 10.3259,
    "Ticket_Cost": "Free Entry"
  },
  {
    "Library_ID": "http://dati.beniculturali.it/mibact/luoghi/resource/CulturalInstituteOrSite/117102",
    "Library_Name": "Biblioteca Statale Annessa al Monumento Nazionale di Grottaferrata",
    "Library_City": "http://dati.beniculturali.it/mibact/luoghi/resource/City/Grottaferrata",
    "Library_Region": "http://dati.beniculturali.it/mibact/luoghi/resource/Region/Lazio",
    "Library_Latitude": 41.787067,
    "Library_Longitude": 12.667435,
    "Ticket_Cost": "Free Entry"
  },
  {
    "Library_ID": "http://dati.beniculturali.it/mibact/luoghi/resource/CulturalInstituteOrSite/116818",
    "Library_Name": "Pinacoteca di Brera - Biblioteca Nazionale Braidense di Milano",
    "Library_City": "http://dati.beniculturali.it/mibact/luoghi/resource/City/Milano",
    "Library_Region": "http://dati.beniculturali.it/mibact/luoghi/resource/Region/Lombardia",
    "Library_Latitude": 45.471947,
    "Library_Longitude": 9.187837,
    "Ticket_Cost": "Free Entry"
  },
  {
    "Library_ID": "http://dati.beniculturali.it/mibact/luoghi/resource/CulturalInstituteOrSite/117406",
    "Library_Name": "Biblioteca nazionale centrale di Roma",
    "Library_City": "http://dati.beniculturali.it/mibact/luoghi/resource/City/Roma",
    "Library_Region": "http://dati.beniculturali.it/mibact/luoghi/resource/Region/Lazio",
    "Library_Latitude": 41.906784,
    "Library_Longitude": 12.504962,
    "Ticket_Cost": "Free Entry"
  },
  {
    "Library_ID": "http://dati.beniculturali.it/mibact/luoghi/resource/CulturalInstituteOrSite/117087",
    "Library_Name": "Biblioteca Universitaria Alessandrina",
    "Library_City": "http://dati.beniculturali.it/mibact/luoghi/resource/City/Roma",
    "Library_Region": "http://dati.beniculturali.it/mibact/luoghi/resource/Region/Lazio",
    "Library_Latitude": 41.90336,
    "Library_Longitude": 12.515426,
    "Ticket_Cost": "Free Entry"
  },
  {
    "Library_ID": "http://dati.beniculturali.it/mibact/luoghi/resource/CulturalInstituteOrSite/118282",
    "Library_Name": "Biblioteca Statale del Monumento Nazionale di Praglia",
    "Library_City": "http://dati.beniculturali.it/mibact/luoghi/resource/City/Teolo",
    "Library_Region": "http://dati.beniculturali.it/mibact/luoghi/resource/Region/Veneto",
    "Library_Latitude": 45.36541,
    "Library_Longitude": 11.73515,
    "Ticket_Cost": "Free Entry"
  },
  {
    "Library_ID": "http://dati.beniculturali.it/mibact/luoghi/resource/CulturalInstituteOrSite/108165",
    "Library_Name": "Biblioteca statale Isontina di Gorizia",
    "Library_City": "http://dati.beniculturali.it/mibact/luoghi/resource/City/Gorizia",
    "Library_Region": "http://dati.beniculturali.it/mibact/luoghi/resource/Region/Friuli-Venezia_Giulia",
    "Library_Latitude": 45.946304,
    "Library_Longitude": 13.62364,
    "Ticket_Cost": "Free Entry"
  },
  {
    "Library_ID": "http://dati.beniculturali.it/mibact/luoghi/resource/CulturalInstituteOrSite/115217",
    "Library_Name": "Biblioteca Universitaria di Genova",
    "Library_City": "http://dati.beniculturali.it/mibact/luoghi/resource/City/Genova",
    "Library_Region": "http://dati.beniculturali.it/mibact/luoghi/resource/Region/Liguria",
    "Library_Latitude": 44.41616,
    "Library_Longitude": 8.924084,
    "Ticket_Cost": "Free Entry"
  },
  {
    "Library_ID": "http://dati.beniculturali.it/mibact/luoghi/resource/CulturalInstituteOrSite/117364",
    "Library_Name": "Biblioteca Universitaria di Pavia",
    "Library_City": "http://dati.beniculturali.it/mibact/luoghi/resource/City/Pavia",
    "Library_Region": "http://dati.beniculturali.it/mibact/luoghi/resource/Region/Lombardia",
    "Library_Latitude": 45.18673,
    "Library_Longitude": 9.155909,
    "Ticket_Cost": "Free Entry"
  },
  {
    "Library_ID": "http://dati.beniculturali.it/mibact/luoghi/resource/CulturalInstituteOrSite/118201",
    "Library_Name": "Biblioteca Statale del Monumento Nazionale di Santa Giustina",
    "Library_City": "http://dati.beniculturali.it/mibact/luoghi/resource/City/Padova",
    "Library_Region": "http://dati.beniculturali.it/mibact/luoghi/resource/Region/Veneto",
    "Library_Latitude": 45.395912,
    "Library_Longitude": 11.879983,
    "Ticket_Cost": "Free Entry"
  },
  {
    "Library_ID": "http://dati.beniculturali.it/mibact/luoghi/resource/CulturalInstituteOrSite/117123",
    "Library_Name": "Biblioteca Universitaria di Napoli",
    "Library_City": "http://dati.beniculturali.it/mibact/luoghi/resource/City/Napoli",
    "Library_Region": "http://dati.beniculturali.it/mibact/luoghi/resource/Region/Campania",
    "Library_Latitude": 40.847164,
    "Library_Longitude": 14.25703,
    "Ticket_Cost": "Free Entry"
  },
  {
    "Library_ID": "http://dati.beniculturali.it/mibact/luoghi/resource/CulturalInstituteOrSite/106119",
    "Library_Name": "Biblioteca Statale del monumento nazionale di Farfa",
    "Library_City": "http://dati.beniculturali.it/mibact/luoghi/resource/City/Fara_in_Sabina",
    "Library_Region": "http://dati.beniculturali.it/mibact/luoghi/resource/Region/Lazio",
    "Library_Latitude": 42.207504,
    "Library_Longitude": 12.729794,
    "Ticket_Cost": "Free Entry"
  },
  {
    "Library_ID": "http://dati.beniculturali.it/mibact/luoghi/resource/CulturalInstituteOrSite/117604",
    "Library_Name": "Biblioteca Nazionale di Napoli \"Vittorio Emanuele III\"",
    "Library_City": "http://dati.beniculturali.it/mibact/luoghi/resource/City/Napoli",
    "Library_Region": "http://dati.beniculturali.it/mibact/luoghi/resource/Region/Campania",
    "Library_Latitude": 40.83619,
    "Library_Longitude": 14.249669,
    "Ticket_Cost": "Free Entry"
  },
  {
    "Library_ID": "http://dati.beniculturali.it/mibact/luoghi/resource/CulturalInstituteOrSite/118197",
    "Library_Name": "Biblioteca statale del monumento nazionale della Badia di Cava",
    "Library_City": "http://dati.beniculturali.it/mibact/luoghi/resource/City/Cava_de__Tirreni",
    "Library_Region": "http://dati.beniculturali.it/mibact/luoghi/resource/Region/Campania",
    "Library_Latitude": 40.68232,
    "Library_Longitude": 14.691221,
    "Ticket_Cost": "Free Entry"
  },
  {
    "Library_ID": "http://dati.beniculturali.it/mibact/luoghi/resource/CulturalInstituteOrSite/111411",
    "Library_Name": "Gallerie estensi - Biblioteca estense universitaria",
    "Library_City": "http://dati.beniculturali.it/mibact/luoghi/resource/City/Modena",
    "Library_Region": "http://dati.beniculturali.it/mibact/luoghi/resource/Region/Emilia-Romagna",
    "Library_Latitude": 44.64811,
    "Library_Longitude": 10.921424,
    "Ticket_Cost": "Free Entry"
  },
  {
    "Library_ID": "http://dati.beniculturali.it/mibact/luoghi/resource/CulturalInstituteOrSite/117796",
    "Library_Name": "Biblioteca Nazionale Centrale di Firenze",
    "Library_City": "http://dati.beniculturali.it/mibact/luoghi/resource/City/Firenze",
    "Library_Region": "http://dati.beniculturali.it/mibact/luoghi/resource/Region/Toscana",
    "Library_Latitude": 43.766922,
    "Library_Longitude": 11.262235,
    "Ticket_Cost": "Free Entry"
  },
  {
    "Library_ID": "http://dati.beniculturali.it/mibact/luoghi/resource/CulturalInstituteOrSite/112086",
    "Library_Name": "Biblioteca statale del Monumento nazionale di Casamari",
    "Library_City": "http://dati.beniculturali.it/mibact/luoghi/resource/City/Veroli",
    "Library_Region": "http://dati.beniculturali.it/mibact/luoghi/resource/Region/Lazio",
    "Library_Latitude": 41.667736,
    "Library_Longitude": 13.436525,
    "Ticket_Cost": "Free Entry"
  },
  {
    "Library_ID": "http://dati.beniculturali.it/mibact/luoghi/resource/CulturalInstituteOrSite/112037",
    "Library_Name": "Biblioteca universitaria di Pisa",
    "Library_City": "http://dati.beniculturali.it/mibact/luoghi/resource/City/Pisa",
    "Library_Region": "http://dati.beniculturali.it/mibact/luoghi/resource/Region/Toscana",
    "Library_Latitude": 43.7152,
    "Library_Longitude": 10.407801,
    "Ticket_Cost": "Free Entry"
  },
  {
    "Library_ID": "http://dati.beniculturali.it/mibact/luoghi/resource/CulturalInstituteOrSite/106567",
    "Library_Name": "Biblioteca nazionale universitaria di Torino",
    "Library_City": "http://dati.beniculturali.it/mibact/luoghi/resource/City/Torino",
    "Library_Region": "http://dati.beniculturali.it/mibact/luoghi/resource/Region/Piemonte",
    "Library_Latitude": 45.068684,
    "Library_Longitude": 7.68633,
    "Ticket_Cost": "Free Entry"
  },
  {
    "Library_ID": "http://dati.beniculturali.it/mibact/luoghi/resource/CulturalInstituteOrSite/108223",
    "Library_Name": "Biblioteca Marucelliana",
    "Library_City": "http://dati.beniculturali.it/mibact/luoghi/resource/City/Firenze",
    "Library_Region": "http://dati.beniculturali.it/mibact/luoghi/resource/Region/Toscana",
    "Library_Latitude": 43.771034,
    "Library_Longitude": 11.248,
    "Ticket_Cost": "Free Entry"
  },
  {
    "Library_ID": "http://dati.beniculturali.it/mibact/luoghi/resource/CulturalInstituteOrSite/20011",
    "Library_Name": "Biblioteca Universitaria di Sassari",
    "Library_City": "http://dati.beniculturali.it/mibact/luoghi/resource/City/Sassari",
    "Library_Region": "http://dati.beniculturali.it/mibact/luoghi/resource/Region/Sardegna",
    "Library_Latitude": 40.722702,
    "Library_Longitude": 8.563728,
    "Ticket_Cost": "Free Entry"
  },
  {
    "Library_ID": "http://dati.beniculturali.it/mibact/luoghi/resource/CulturalInstituteOrSite/117148",
    "Library_Name": "Biblioteca Statale Stelio Crise di Trieste",
    "Library_City": "http://dati.beniculturali.it/mibact/luoghi/resource/City/Trieste",
    "Library_Region": "http://dati.beniculturali.it/mibact/luoghi/resource/Region/Friuli-Venezia_Giulia",
    "Library_Latitude": 45.64559,
    "Library_Longitude": 13.763095,
    "Ticket_Cost": "Free Entry"
  },
  {
    "Library_ID": "http://dati.beniculturali.it/mibact/luoghi/resource/CulturalInstituteOrSite/117350",
    "Library_Name": "Biblioteca Nazionale di Potenza",
    "Library_City": "http://dati.beniculturali.it/mibact/luoghi/resource/City/Potenza",
    "Library_Region": "http://dati.beniculturali.it/mibact/luoghi/resource/Region/Basilicata",
    "Library_Latitude": 40.634987,
    "Library_Longitude": 15.786017,
    "Ticket_Cost": "Free Entry"
  }
]